latitude,longitude,name
38.55042047,-121.3914158,3108 OCCIDENTAL DR
38.47350069,-121.4901858,2082 EXPEDITION WAY
38.65784584,-121.46210090000001,4 PALEN CT
38.50677377,-121.42695079999999,22 BECKFORD CT
38.6374478,-121.3846125,3421 AUBURN BLVD
38.52697863,-121.45133829999999,5301 BONNIEMAE WAY
38.537172999999996,-121.48757739999999,2217 16TH AVE
38.56433456,-121.46188259999998,3547 P ST
38.6374478,-121.3846125,3421 AUBURN BLVD
38.60960217,-121.4918375,1326 HELMSMAN WAY
38.55426406,-121.45460449999999,2315 STOCKTON BLVD
38.52816497,-121.43145279999999,5112 63RD ST
38.51092155,-121.54882009999999,6351 DRIFTWOOD ST
38.55611545,-121.4142729,7721 COLLEGE TOWN DR
38.50398051,-121.3923987,8460 ROVANA CIR
38.54152896,-121.44950970000001,4856 11TH AVE
38.51657327,-121.4234749,6033 69TH ST
38.58184562,-121.50116570000002,547 L ST
38.54270763,-121.4572067,3525 42ND ST
38.52459987,-121.52036090000001,5641 DORSET WAY
38.44659211,-121.4423777,5551 REXLEIGH CT
38.59664183,-121.423349,1896 ARDEN WAY
38.51512387,-121.5291027,6168 RIVERSIDE BLVD
38.65660112,-121.45604490000001,415 SEXTANT WAY
38.44281523,-121.4095243,15 BASIN CT
38.5438039,-121.4332827,3340 62ND ST
38.47121906,-121.4547389,4280 DEER HILL DR
38.5564521,-121.51233090000001,2814 5TH ST
38.49535335,-121.49656019999999,1816 FLORIN RD
38.64717373,-121.4375169,1260 BELL AVE
38.47889498,-121.53544769999999,7676 BRIDGEVIEW DR
38.63734742,-121.44464199999999,3816 CYPRESS ST
38.57289613,-121.47679579999999,1211 23RD ST
38.51436734,-121.38542859999998,7001 EAST PKWY
38.47948616,-121.5215057,918 LAKE FRONT DR
38.65994218,-121.52590079999999,4851 KOKOMO DR
38.60893745,-121.51879270000002,2377 OAK HARBOUR DR
38.57084621,-121.484429,1823 P ST
38.57815667,-121.48769579999998,1100 14TH ST
38.64378844,-121.53415929999998,3301 ARENA BLVD
38.62798948,-121.4857344,1088 PREGO WAY
38.61153542,-121.53706129999999,3259 SPINNING ROD WAY
38.57999251,-121.4930384,1010 J ST
38.59540732,-121.49787979999999,400 BANNON ST
38.51526387,-121.4296507,6115 63RD ST
38.65737252,-121.4577585,47 FIRE LEAF CT
38.52799185,-121.434789,5140 61ST ST
38.56796664,-121.48525420000001,1814 19TH ST
38.50009398,-121.47762620000002,6940 27TH ST
38.54138742,-121.4282497,3820 65TH ST
38.49609085,-121.4740915,2829 FLORIN RD
38.52973955,-121.5195294,1080 APPOLLO WAY
38.46637324,-121.4265274,6571 WEATHERFORD WAY
38.51538948,-121.5255605,930 43RD AVE
38.57905906,-121.4661967,2830 E ST
38.63036289,-121.4755269,NORTHGATE BLVD / W SILVER EAGLE RD
38.50632179,-121.4333041,6665 STOCKTON BLVD
38.47400047,-121.45819329999999,7811 DEER MEADOW DR
38.57724403,-121.50514369999999,3RD ST / O ST
38.57419952,-121.47055300000001,27TH ST / J ST
38.57881567,-121.4970836,8TH ST / L ST
38.55456463,-121.41061380000001,7850 COLLEGE TOWN DR
38.52199211,-121.4309007,63RD ST / JANSEN DR
38.62453557,-121.52641979999999,11 ALCANON CT
38.62504428,-121.4978986,TRUXEL RD / SAGINAW CIR
38.56984785,-121.47370520000001,2600 N ST
38.46518116,-121.44616529999999,4740 BECKET WAY
38.4497213,-121.4258719,CALVINE RD / CENTER PKWY
38.47143667,-121.42761499999999,6625 VALLEY HI DR
38.61972226,-121.41527990000002,RAINBOW AVE / HOWE AVE
38.49570962,-121.47782600000001,2500 FLORIN RD
38.62070956,-121.42269579999999,3012 ALBATROSS WAY
38.61488957,-121.49342720000001,1426 BREWERTON DR
38.58239328,-121.50593359999999,FRONT ST / K ST
38.53116122,-121.46612140000002,3807 24TH AVE
38.60641085,-121.4473501,EMPRESS ST / ARDEN WAY
38.57682477,-121.4882896,1415 L ST
38.63207451,-121.5287747,2737 SCREECH OWL WAY
38.60108154,-121.456171,1900 CANTERBURY RD
38.47489873,-121.49969440000001,7769 AMHERST ST
38.67510292,-121.5226753,100 ROCKMONT CIR
38.46594742,-121.4513773,8032 TORRENTE WAY
38.51055016,-121.40908300000001,POWER INN RD / ELDER CREEK RD
38.570664,-121.465448,1125 ALHAMBRA BLVD
38.643232399999995,-121.4563115,4128 NORWOOD AVE
38.67318557,-121.50354909999999,HONOR PKWY / REGENCY PARK CIR
38.66695301,-121.50887069999999,3 CLOE CT
38.45025842,-121.443044,8454 COEBURN ST
38.52337984,-121.4378491,5620 34TH AVE
38.56159185,-121.4923822,BROADWAY / 16TH ST
38.56438552,-121.4516767,1414 43RD ST
38.49603233,-121.4619674,FLORIN RD / MUNSON WAY
38.52967087,-121.4469794,1 CLAUSS CT
38.47425283,-121.43687690000002,MACK RD / CENTER PKWY
38.57941421,-121.48643440000001,1426 I ST
38.47425283,-121.43687690000002,MACK RD / CENTER PKWY
38.49714012,-121.51368980000001,1236 EL ENCANTO WAY
38.57201606,-121.4692575,2801 L ST
38.61859754,-121.43825690000001,2884 DEL PASO BLVD
38.57348427,-121.4678719,J ST / 29TH ST
38.61197962,-121.4578062,2518 HAWTHORNE ST
38.62099831,-121.5104473,AZEVEDO DR / YARWOOD WAY
38.51755951,-121.4142712,6021 WILKINSON ST
38.63465784,-121.43924009999998,1200 ROANOKE AVE
38.65509277,-121.4477394,RIO LINDA BLVD / MAIN AVE
38.5076709,-121.5412748,398 FLORIN RD
38.65966202,-121.4535351,525 EXCHANGE ST
38.61499077,-121.45347140000001,535 LAMPASAS AVE
38.65699142,-121.5038615,12 GRAND CANYON CT
38.63500106,-121.4213652,3709 PRESIDIO ST
38.49601155,-121.45927720000002,FLORIN RD / FRANKLIN BLVD
38.54182394,-121.47095049999999,3615 33RD ST
38.63963285,-121.4130509,2324 NORTH AVE
38.63351404,-121.5282646,2800 CHATEAU MONTELENA WAY
38.61199425,-121.4244182,1820 FRIENZA AVE
38.57546355,-121.47618229999999,2230 J ST
38.50771305,-121.5534498,6581 HARMON DR
38.51617367,-121.52863789999999,6054 RIVERSIDE BLVD
38.60088271,-121.4352821,1545 RIVER PARK DR
38.63244741,-121.4903723,1287 TRAIL END WAY
38.62275946,-121.51394599999999,2215 BORONA WAY
38.51110856,-121.53434340000001,6 SHELTER POINT CT
38.61286644,-121.44445470000001,970 FRIENZA AVE
38.61301252,-121.4993798,1631 W EL CAMINO AVE
38.60758365,-121.54110449999999,SWEET PEA WAY / SHADY ARBOR CT
38.65509277,-121.4477394,RIO LINDA BLVD / MAIN AVE
38.5206653,-121.515833,5878 KAHARA CT
38.62749128,-121.52870700000001,18 GODELLO CT
38.55456463,-121.41061380000001,7850 COLLEGE TOWN DR
38.66227019,-121.52913889999999,4947 KOKOMO DR
38.5695415,-121.40908400000001,HOWE AVE / AMERICAN RIVER DR
38.65731154,-121.51199790000001,4650 NATOMAS BLVD
38.54072015,-121.4620361,3724 SAN CARLOS WAY
38.53437911,-121.50687420000001,4410 CRESTWOOD WAY
38.62194039,-121.43171299999999,1500 TESSA AVE
38.46337225,-121.41617179999999,7500 HOSPITAL DR
38.54929974,-121.3882189,8545 FOLSOM BLVD
38.46449565,-121.45678799999999,8105 PHINNEY DR
38.58259727,-121.500996,401 J ST
38.54100057,-121.44581470000001,3632 52ND ST
38.53725889,-121.44775609999999,SAN FRANCISCO BLVD / 50TH ST
38.52545723,-121.51393390000001,5524 DANJAC CIR
38.61361383,-121.454378,2571 ALTOS AVE
38.58062786,-121.5014996,414 K ST
38.48682651,-121.5001978,7486 CARELLA DR
38.58137649,-121.49745379999999,7TH ST / J ST
38.48023792,-121.4360926,5701 LERNER WAY
38.58472227,-121.48585049999998,1321 E ST
38.60666541,-121.422421,1912 BOWLING GREEN DR
38.63862878,-121.3815598,3555 AUBURN BLVD
38.48420982,-121.448306,7526 TITIAN PKWY
38.56047289,-121.39027040000002,12 WATERGLEN CIR
38.65394829,-121.46246299999999,4733 NASHUA WAY
38.62221222,-121.44473190000001,971 ACACIA AVE
38.62524321,-121.4304825,3146 PALMER ST
38.46027205,-121.4304773,8178 CENTER PKWY
38.61199425,-121.4244182,1820 FRIENZA AVE
38.60154457,-121.42747,1689 ARDEN WAY
38.61317258,-121.44244690000001,1029 FRIENZA AVE
38.52199137,-121.49901489999999,5770 FREEPORT BLVD
38.63070055,-121.44086399999999,1113 CONGRESS AVE
38.6374478,-121.3846125,3421 AUBURN BLVD
38.56839814,-121.43135249999999,560 SANDBURG DR
38.48020103,-121.50157859999999,7608 AMHERST ST
38.63910642,-121.52799999999999,3801 DUCKHORN DR
38.57543889,-121.50297350000001,5TH ST / P ST
38.49203951,-121.46133020000002,7301 MEADOWGATE DR
38.677688399999994,-121.53454009999999,5518 SAGPOND WAY
38.54199544,-121.4712254,33RD ST / 11TH AVE
38.5127908,-121.5313723,35 QUAY CT
38.56796664,-121.48525420000001,1814 19TH ST
38.50488174,-121.4804148,2505 52ND AVE
38.52199137,-121.49901489999999,5770 FREEPORT BLVD
38.64823548,-121.4261249,1751 BELL AVE
38.63589608,-121.5055312,3661 TRUXEL RD
38.63869884,-121.4424398,3904 MAY ST
38.66157492,-121.4969793,1650 BAINES AVE
38.47415723,-121.42969950000001,6272 MACK RD
38.54818818,-121.3940644,8389 FOLSOM BLVD
38.553090600000004,-121.3751255,FOLSOM BLVD / WATT AVE
38.64770425,-121.4242104,1801 BELL AVE
38.56737967,-121.47865149999998,2314 Q ST
38.60972461,-121.4953467,2340 MOSSY BANK DR
38.45718227,-121.4133413,8101 COSUMNES RIVER BLVD
38.57775529999999,-121.48388229999999,J ST / 17TH ST
38.45964489,-121.42914479999999,8200 CENTER PKWY
38.50926564,-121.41297279999999,6421 SUN RIVER DR
38.63535055,-121.42815420000001,3715 IVY ST
38.62642643,-121.487454,3157 BRIDGEFORD DR
38.58432423,-121.4902264,11TH ST / F ST
38.57001564,-121.48722959999999,17TH ST / Q ST
38.52496323,-121.44388740000001,FRUITRIDGE RD / 53RD ST
38.52517945,-121.4443121,5301 FRUITRIDGE RD
38.62009985,-121.4590851,2890 GROVE AVE
38.6176064,-121.4204494,2828 CONNIE DR
38.54069286,-121.4728119,3700 32ND ST
38.56108765,-121.49137160000001,1632 BROADWAY
38.62764502,-121.4258496,1729 DIGGS PARK DR
38.52517945,-121.4443121,5301 FRUITRIDGE RD
38.65543537,-121.5223763,2700 DEL PASO RD
38.49250972,-121.45794450000001,7290 FRANKLIN BLVD
38.60057486,-121.4940223,700 N 5TH ST
38.61712192,-121.4587997,321 ELEANOR AVE
38.61712192,-121.4587997,321 ELEANOR AVE
38.44227407,-121.4127165,7659 MASTERS ST
38.63425266,-121.41777590000001,3644 DAYTON ST
38.55701398,-121.4762723,2800 BROADWAY
38.58376222,-121.48484640000001,1418 E ST
38.54242302,-121.46746019999999,3514 37TH ST
38.59572389,-121.5050785,227 JIBBOOM ST
38.609884,-121.46479,78 REDWOOD AVE
38.62798992,-121.5092581,3311 LONG BRANCH CT
38.60240036,-121.42950320000001,1601 ARDEN WAY
38.57117547,-121.4924504,1701 13TH ST
38.50482198,-121.41121310000001,7770 52ND AVE
38.61328867,-121.494681,2621 STONECREEK DR
38.61112465,-121.45935959999998,EL CAMINO AVE / GROVE AVE
38.62581805,-121.49713009999999,3200 TRUXEL RD
38.61102318,-121.51194720000001,2540 VENTURE OAKS WAY
38.62266231,-121.42608929999999,1732 ELDRIDGE AVE
38.56788759,-121.47924590000001,23RD ST / Q ST
38.63659439,-121.4763493,NORTHGATE BLVD / ROSIN CT
38.52654807,-121.44340659999999,5530 STOCKTON BLVD
38.49601155,-121.45927720000002,FRANKLIN BLVD / FLORIN RD
38.60311006,-121.42697450000001,1609 BOWLING GREEN DR
38.61589867,-121.49247859999998,1422 BREWERTON DR
38.60880668,-121.4528434,2000 DEL PASO BLVD
38.53137433,-121.45064029999999,MCGLASHAN ST / PERRY AVE
38.531379799999996,-121.45237420000001,PERRY AVE / 46TH ST
38.56165546,-121.3880115,8552 ERINBROOK WAY
38.64316291,-121.47458190000002,4100 NORTHGATE BLVD
38.52225475,-121.4114993,7901 34TH AVE
38.64390931,-121.4507882,630 JESSIE AVE
38.51585237,-121.36750009999999,4 WAYNE CT
38.54020494,-121.4505653,3800 STOCKTON BLVD
38.47226256,-121.4336162,5907 BAMFORD DR
38.66757714,-121.4538176,5425 RIO LINDA BLVD
38.5842425,-121.50364679999998,2ND ST / I ST
38.57562427,-121.47589779999998,23RD ST / J ST
38.67667622,-121.5088422,2116 MABRY DR
38.60667473,-121.4226379,1906 BOWLING GREEN DR
38.57016732,-121.5069731,330 U ST
38.61472939,-121.43000649999999,PRINCETON ST / GLENROSE AVE
38.61935446,-121.47553429999999,INDIANA AVE / NORTHGATE BLVD
38.61292672,-121.44157040000002,LEXINGTON ST / FRIENZA AVE
38.46292264,-121.42840259999998,65 BRENTFORD CIR
38.46377975,-121.43126310000001,VALLEY HI DR / CENTER PKWY
38.55507539999999,-121.46845330000001,34TH ST / Y ST
38.58245172,-121.4877874,13TH ST / G ST
38.55645223,-121.4289124,1311 63RD ST
38.54470924,-121.4490342,4911 8TH AVE
38.4625133,-121.4603514,3845 SEA FOREST WAY
38.67660642,-121.51904669999999,2481 KRAMERIA AVE
38.50751789,-121.54774429999999,6550 PARK RIVIERA WAY
38.56502139,-121.4763254,2531 S ST
38.54783739,-121.42432029999999,6730 4TH AVE
38.55137298,-121.40615030000001,200 BICENTENNIAL CIR
38.60824476,-121.5192803,2311 RIVER PLAZA DR
38.54468278,-121.4591392,3251 SAN JOSE WAY
38.54118802,-121.45931599999999,12TH AVE / LISSETTA AVE
38.62769343,-121.46344509999999,3345 MABEL ST
38.47687825,-121.5002604,1549 JANRICK AVE
38.48227523,-121.4584554,4108 WEYMOUTH LN
38.66254563,-121.45128899999999,621 CLAIRE AVE
38.51484622,-121.5249979,930 43RD AVE
38.62743901,-121.5056249,SAN JUAN RD / BANDON WAY
38.47663386,-121.4803303,24TH ST / TEEKAY WAY
38.44973707,-121.4180465,BRUCEVILLE RD / CALVINE RD
38.61880719,-121.4796125,2912 CAMARILLO DR
38.44803746,-121.40780159999998,8461 TAMBOR WAY
38.51042757,-121.5419071,6421 RIVERSIDE BLVD
38.48243228,-121.514852,7553 GREENHAVEN DR
38.55155803,-121.46849350000001,35TH ST / BROADWAY
38.58612197,-121.48321999999999,15TH ST / C ST
38.60879322,-121.4306804,1595 SILICA AVE
38.59444259,-121.48147320000001,ELIZA ST / LOUISE ST
38.48369463,-121.515322,1240 ALDER TREE WAY
38.5454679,-121.45733249999999,3205 42ND ST
38.64036498,-121.4321298,1515 NORTH AVE
38.57201606,-121.4692575,2801 L ST
38.55531685,-121.47928519999999,2628 27TH ST
38.6358152,-121.44464340000002,3720 CYPRESS ST
38.59156169,-121.42002420000001,ETHAN WAY / HALLMARK DR
38.53444222,-121.40791329999999,4635 POWER INN RD
38.57920289,-121.49394299999999,10TH ST / K ST
38.54867149,-121.42308270000001,4TH AVE / REDDING AVE
38.63482334,-121.44166840000001,ROANOKE AVE / BELDEN ST
38.62073056,-121.4618489,212 CHRISTINE DR
38.60930026,-121.47706409999998,2351 NORTHGATE BLVD
38.62630755,-121.4756162,3251 NORTHGATE BLVD
38.62073678,-121.45729509999998,346 LINDLEY DR
38.61538617,-121.4234494,2743 ALBATROSS WAY
38.51364018,-121.4211919,7060 ROCK CREEK WAY
38.62866431,-121.4631893,MABEL ST / FORD RD
38.46252937,-121.45850379999999,MCNAMARA WAY / BENOIT CT
38.62968232,-121.44611599999999,RIO LINDA BLVD / CARMELITA AVE
38.58514056,-121.48543810000001,1328 D ST
38.57630105,-121.4319262,BETTY WAY / CAMELLIA AVE
38.60527526,-121.4516527,2156 CANTALIER ST
38.57848338,-121.47420819999999,2300 G ST
38.54102578,-121.46577140000001,3824 12TH AVE
38.51348202,-121.53254199999999,HAVENSIDE DR / RIVERSIDE BLVD
38.56382548,-121.491401,W ST / 16TH ST
38.60739495,-121.42059540000001,1960 JOAN WAY
38.57962095,-121.5068273,100 CAPITOL MALL
38.6089261,-121.4935886,2305 SANDCASTLE WAY
38.62275189,-121.4642874,132 OLMSTEAD DR
38.65941872,-121.50964409999999,4780 NATOMAS BLVD
38.59530776,-121.4839757,RICHARDS BLVD / DOS RIOS ST
38.47433302,-121.43981740000001,5255 MACK RD
38.43840598,-121.41833429999998,8775 CENTER PKWY
38.54454369,-121.4558291,8TH AVE / 44TH ST
38.59645425,-121.4382598,1370 RESPONSE RD
38.54061027,-121.4474575,5016 12TH AVE
38.51007761,-121.4095726,8024 ELDER CREEK RD
38.60027317,-121.4252477,1701 ARDEN WAY
38.59808509,-121.4275537,1690 ARDEN WAY
38.59530776,-121.4839757,DOS RIOS ST / RICHARDS BLVD
38.55614777,-121.4267606,65TH ST / ELVAS AVE
38.63228581,-121.4303283,3550 MARYSVILLE BLVD
38.44973707,-121.4180465,CALVINE RD / BRUCEVILLE RD
38.59664183,-121.423349,1896 ARDEN WAY
38.63931448,-121.42957890000001,3927 MARYSVILLE BLVD
38.52823386,-121.44564820000001,5100 STOCKTON BLVD
38.47602372,-121.5014051,1470 JANRICK AVE
38.45541339,-121.4420784,5210 SHORTWAY DR
38.58057689,-121.50369679999999,3RD ST / L ST
38.57218405,-121.4907608,14TH ST / P ST
38.49543922,-121.47997679999999,2460 FLORIN RD
38.57163324,-121.4854271,1730 O ST
38.52736754,-121.504668,1421 OREGON DR
38.52062063,-121.5084967,5824 ANNRUD WAY
38.62635393,-121.43920390000001,ARCADE BLVD / CLAY ST
38.57320247,-121.4747123,2415 L ST
38.57411723,-121.4827193,1831 CAPITOL AVE
38.61421301,-121.4925571,2668 STONECREEK DR
38.63939388,-121.46048959999999,3950 DEVELOPMENT DR
38.57725503,-121.4806992,1901 J ST
38.61692679,-121.45935060000001,GROVE AVE / ELEANOR AVE
38.57218529,-121.4642683,3140 J ST
38.58245363,-121.50527549999998,113 K ST
38.53284086,-121.49592179999999,4700 FREEPORT BLVD
38.53553572,-121.4468745,4331 STOCKTON BLVD
38.56159185,-121.4923822,16TH ST / BROADWAY
38.57240323,-121.4856804,1701 O ST
38.61124309,-121.4755625,NORTHGATE BLVD / W EL CAMINO AVE
38.54106323,-121.47576000000001,SUTTERVILLE RD / FRANKLIN BLVD
38.60986284,-121.45905420000001,2378 GROVE AVE
38.542611,-121.4443687,3500 53RD ST
38.58052209,-121.49862479999999,545 K ST
38.47764806,-121.4891676,211 HEMFORD CIR
38.65735092,-121.51026759999999,4680 NATOMAS BLVD
38.63862878,-121.3815598,3555 AUBURN BLVD
38.62198839,-121.4461582,ACACIA AVE / RIO LINDA BLVD
38.63862878,-121.3815598,3555 AUBURN BLVD
38.62219451,-121.43821100000001,1253 ACACIA AVE
38.54940296,-121.4091389,HOWE AVE / FOLSOM BLVD
38.63040165,-121.47802959999999,725 SAN JUAN RD
38.51332326,-121.43148359999999,6025 DIAS AVE
38.62875561,-121.5085108,3348 DRY BRANCH CT
38.58184562,-121.50116570000002,547 L ST
38.51030591,-121.47879209999999,47TH AVE / WOODBINE AVE
38.62982199,-121.4414625,1111 LOS ROBLES BLVD
38.57997771,-121.4978345,700 K ST
38.65899218,-121.46001559999999,10 FIG LEAF CT
38.65023973,-121.50850259999999,4400 TRUXEL RD
38.53114891,-121.4223993,4901 ALCOTT DR
38.51852,-121.475971,2881 38TH AVE
38.45790447,-121.43708600000001,8256 VILLAGE CREEK WAY
38.67549475,-121.4977777,260 ODELL CIR
38.47322263,-121.4250682,7821 ALTA VALLEY DR
38.52507079,-121.41993870000002,BELLEVIEW AVE / FRUITRIDGE RD
38.63253761,-121.42571219999999,1776 SOUTH AVE
38.64688728,-121.41406609999999,2224 BELL AVE
38.49297696,-121.50712859999999,7293 FARM DALE WAY
38.47920034,-121.4638793,7661 SKIROS WAY
38.57881567,-121.4970836,8TH ST / L ST
38.61402379,-121.49261440000001,2660 STONECREEK DR
38.49852712,-121.47422730000001,YREKA AVE / CANYON TREE DR
38.58053662,-121.4906312,906 12TH ST
38.61499899,-121.423449,1861 GLENROSE AVE
38.5704109,-121.4841033,19TH ST / P ST
38.57704873,-121.4812324,19TH ST / J ST
38.48308908,-121.47900120000001,2451 MEADOWVIEW RD
38.61733037,-121.510595,2828 AQUINO DR
38.62753184,-121.47553020000001,NORTHGATE BLVD / RIO TIERRA AVE
38.65357208,-121.50951270000002,4500 TRUXEL RD
38.6208506,-121.47001750000001,300 CURRAN AVE
38.56363425,-121.4885101,18TH ST / V ST W ST ALY
38.62053806,-121.4489382,757 ALAMOS AVE
38.60765045,-121.4504831,2304 OAKMONT ST
38.57900945,-121.489911,1230 J ST
38.629651700000004,-121.47552859999999,NORTHGATE BLVD / SAN JUAN RD
38.473580299999995,-121.4443013,4940 MACK RD
38.61110308,-121.46180259999998,EDGEWATER RD / EL CAMINO AVE
38.66166376,-121.45585919999999,426 CLAIRE AVE
38.64420903,-121.5129034,4101 INNOVATOR DR
38.54944953,-121.4614493,3962 3RD AVE
38.50098733,-121.41042,8025 WAGON TRAIL WAY
38.62255411,-121.45602120000001,412 ARCADE BLVD
38.57308322,-121.5075511,219 S ST
38.57308322,-121.5075511,215 S ST
38.57308322,-121.5075511,217 S ST
38.52186986,-121.51169679999998,5720 HOLSTEIN WAY
38.61775373,-121.49471940000001,1460 WOODRIDGE OAK WAY
38.65467106,-121.4625907,4782 KIT WAY
38.49502703,-121.5030125,1401 TIVERTON AVE
38.61867245,-121.44812659999998,LAS PALMAS AVE / ALTOS AVE
38.46101961,-121.41412700000001,8120 TIMBERLAKE WAY
38.48531018,-121.5356226,7530 RUSH RIVER DR
38.64336682,-121.42168590000001,99 VILLAGE CIR
38.59667389,-121.50569820000001,JIBBOOM ST / RICHARDS BLVD
38.55513128,-121.47286609999999,1ST AVE / ALHAMBRA BLVD
38.52512948,-121.4487903,5560 MCGLASHAN ST
38.57372161,-121.48267320000001,19TH ST / CAPITOL AVE
38.50290045,-121.48192479999999,6815 24TH ST
38.66172026,-121.52760500000001,4918 KOKOMO DR
38.58048952,-121.4715453,2412 E ST
38.60055347,-121.49857490000001,610 BERCUT DR
38.55463027,-121.41164140000001,7767 LA RIVIERA DR
38.5722972,-121.4773354,23RD ST / CAPITOL AVE
38.65300918,-121.4618713,4673 DANROTH DR
38.52845688,-121.51288570000001,1245 27TH AVE
38.48972495,-121.50244850000001,1470 MATHEWS WAY
38.57905171,-121.4976906,715 L ST
38.51382164,-121.52692340000002,6230 GREENHAVEN DR
38.63684482,-121.44233529999998,1045 GRAND AVE
38.68251335,-121.5015993,1824 DAWNELLE WAY
38.61586018,-121.4445924,950 ELEANOR AVE
38.53402736,-121.4978746,4555 FRANCIS CT
38.53402736,-121.4978746,4555 FRANCIS CT
38.53432365,-121.488409,2170 20TH AVE
38.63908268,-121.4042501,3900 ROSEVILLE RD
38.57984491,-121.4669044,416 28TH ST
38.63535473,-121.4622882,3800 DIDCOT CIR
38.63365507,-121.50033400000001,TRUXEL RD / I 80 EB
38.51928736,-121.38891650000001,8531 THYS CT
38.56010621,-121.4867588,BROADWAY / 20TH ST
38.5404985,-121.42122579999999,7024 MAITA CIR
38.54219716,-121.4673115,3526 37TH ST
38.53494151,-121.43359779999999,61ST ST / 19TH AVE
38.53243835,-121.4139778,7767 21ST AVE
38.52718667,-121.47124769999999,5303 FRANKLIN BLVD
38.62688953,-121.52793740000001,3180 GUADALAJARA WAY
38.5923559,-121.4926811,N B ST / N 7TH ST
38.61199425,-121.4244182,1820 FRIENZA AVE
38.49397262,-121.50751310000001,48 ROSE MEAD CIR
38.62145778,-121.49973,1671 PEBBLEWOOD DR
38.60929375,-121.4404159,SELMA ST / DIXIEANNE AVE
38.57920289,-121.49394299999999,10TH ST / K ST
38.57965854,-121.4681757,27TH ST / E ST
38.48235122,-121.45069939999999,4520 BROOKFIELD DR
38.47704073,-121.5231254,POCKET RD / COLEMAN RANCH WAY
38.62612259,-121.50472040000001,BANDON WAY / DEVRI CT
38.4797218,-121.440072,CENTER PKWY / LERNER WAY
38.57882476,-121.4878834,14TH ST / J ST
38.51839666,-121.3965716,15 BUSINESS PARK WAY
38.67803627,-121.5363804,780 GREG THATCH CIR
38.65333642,-121.5363135,4500 TYNEBOURNE ST
38.49417981,-121.5235386,7231 GREENHAVEN DR
38.63908268,-121.4042501,3900 ROSEVILLE RD
38.58207989,-121.5000936,5TH ST / J ST
38.51896869,-121.5205386,1028 LAKE GLEN WAY
38.60027317,-121.4252477,1701 ARDEN WAY
38.54264475,-121.4703011,10TH AVE / 34TH ST
38.53069117,-121.4105872,4969 TORONTO WAY
38.616307,-121.4225354,1904 HELENA AVE
38.63909731,-121.44136529999999,3916 BELDEN ST
38.51364018,-121.4211919,7060 ROCK CREEK WAY
38.54368712,-121.44430790000001,5241 9TH AVE
38.60672341,-121.47559229999999,NORTHGATE BLVD / JEFFERSON AVE
38.66321971,-121.52764760000001,2951 LOGANSPORT DR
38.54242538,-121.4757955,FRANKLIN BLVD / 11TH AVE
38.487682799999995,-121.4716869,TORRANCE AVE / 32ND ST
38.574057700000004,-121.5081215,1800 2ND ST
38.49442501,-121.47490390000002,55 QUASAR CIR
38.56940412,-121.4417047,H ST / 50TH ST
38.56480438,-121.4781317,2420 S ST
38.61611679999999,-121.45293079999999,2681 FAIRFIELD ST
38.56654113,-121.4436297,4830 J ST
38.57688189,-121.4783232,21ST ST / I ST J ST ALY
38.50336488,-121.5391044,316 ROUNDTREE CT
38.57991197,-121.4966071,8TH ST / K ST
38.48155327,-121.4608538,BROOKFIELD DR / TEAK CT
38.63252107,-121.4529344,3581 TAYLOR ST
38.61186919,-121.42356529999999,2541 ALBATROSS WAY
38.54121247,-121.47114380000001,33RD ST / 12TH AVE
38.57024299,-121.4262591,SANDBURG DR / CAMELLIA AVE
38.54988284,-121.38839920000001,8545 FOLSOM BLVD
38.66583461,-121.4267572,5400 RALEY BLVD
38.64006189,-121.4530341,575 DISPLAY WAY
38.58249661,-121.4892459,701 12TH ST
38.57899998,-121.50738079999999,NEASHAM CIR / FRONT ST
38.56641822,-121.4828556,21ST ST / S ST
38.51270034,-121.5368634,6278 RIVERSIDE BLVD
38.49511942,-121.47604479999998,2730 FLORIN RD
38.6377679,-121.43001140000001,3845 MARYSVILLE BLVD
38.49362212,-121.45800600000001,FRANKLIN BLVD / MEADOWGATE DR
38.65899218,-121.46001559999999,10 FIG LEAF CT
38.61409015,-121.5086433,2055 W EL CAMINO AVE
38.61722561,-121.421177,2815 CONNIE DR
38.60845539,-121.5250742,2727 RIVER PLAZA DR
38.57734295,-121.49624740000002,9TH ST / CAPITOL MALL
38.4730026,-121.4333379,5700 MACK RD
38.48646868,-121.4758183,7403 FLORES WAY
38.53563438,-121.4936121,20TH AVE / FREEPORT BLVD
38.57706706,-121.47676170000001,22ND ST / I ST
38.62916107,-121.437666,1221 RIVERA DR
38.56767025,-121.4852913,19TH ST / R ST S ST ALY
38.56863488,-121.476897,2411 P ST
38.61619673,-121.51790020000001,2832 GRASSLANDS DR
38.57777929,-121.47942900000001,20TH ST / I ST
38.63228581,-121.4303283,3550 MARYSVILLE BLVD
38.4497213,-121.4258719,CENTER PKWY / CALVINE RD
38.63070434,-121.4303689,1532 ROSALIND ST
38.57759578,-121.506495,O ST / 2ND ST
38.55378987,-121.466571,3543 1ST AVE
38.44313648,-121.4236588,4 VINTON CT
38.582786,-121.50273689999999,3RD ST / J ST
38.53424184,-121.42868100000001,4488 1/2 65TH ST
38.54364991,-121.46973419999999,3422 9TH AVE
38.54844544,-121.4882798,2156 WELLER WAY
38.58138778,-121.48379299999999,16TH ST / G ST
38.5470688,-121.39899009999998,FOLSOM BLVD / JACKSON RD
38.44814292,-121.4281961,8548 HERMITAGE WAY
38.63778289,-121.4336278,3832 HURON ST
38.56979971,-121.4679798,30TH ST / CAPITOL AVE
38.60574184,-121.4277652,2242 ROYALE RD
38.66064286,-121.50306909999999,4700 CREST DR
38.4801213,-121.46648540000001,3437 JOLA CIR
38.64426884,-121.4274874,EMMONS ST / MACARTHUR ST
38.57775529999999,-121.48388229999999,17TH ST / J ST
38.51495249,-121.53561499999999,699 RIVERCREST DR
38.48090489,-121.4584308,144 CEDAR ROCK CIR
38.52718667,-121.47124769999999,5303 FRANKLIN BLVD
38.63862878,-121.3815598,3555 AUBURN BLVD
38.64662608,-121.5027081,GATEWAY PARK BLVD / ARENA BLVD
38.51408657,-121.5030091,1443 HOPKINS ST
38.55531685,-121.47928519999999,2628 27TH ST
38.53881527,-121.47901399999999,2750 SUTTERVILLE RD
38.62928795,-121.5064872,3375 SMOKE TREE DR
38.47428454,-121.42270890000002,MACK RD / HWY 99 NB
38.67081464,-121.50777579999999,NATOMAS BLVD / CLUB CENTER DR
38.61668041,-121.48853899999999,2827 MENDEL WAY
38.66809307,-121.5064006,1900 DANBROOK DR
38.579198,-121.4847429,I ST / 16TH ST
38.55864807,-121.50503140000001,MUIR WAY / MCCLATCHY WAY
38.58245363,-121.50527549999998,113 K ST
38.51737845,-121.43472620000001,5959 LEMON PARK WAY
38.57905171,-121.4976906,715 L ST
38.54121247,-121.47114380000001,33RD ST / 12TH AVE
38.62942123,-121.5055446,3381 SHADOW TREE DR
38.52488785,-121.47174709999999,FRUITRIDGE RD / FRANKLIN BLVD
38.63869884,-121.4424398,3904 MAY ST
38.57629892,-121.4830358,18TH ST / K ST
38.62675838,-121.43540959999999,3211 DEL MAR WAY
38.47717845,-121.4972996,1780 71ST AVE
38.56858874,-121.49557820000001,12TH ST / T ST
38.57813402,-121.48076270000001,19TH ST / I ST
38.47753956,-121.48390420000001,2285 JOHN STILL DR
38.54439581,-121.3908868,FLORIN PERKINS RD / JACKSON RD
38.59007055,-121.4856685,1200 N B ST
38.62995233,-121.47279590000001,428 W SILVER EAGLE RD
38.63446573,-121.4495692,712 MOREY AVE
38.57845904,-121.4946409,925 L ST
38.47889655,-121.4346919,7678 CANOVA WAY
38.60894608,-121.4626763,166 STANFORD AVE
38.51206582,-121.54232990000001,593 LELANDHAVEN WAY
38.60918097,-121.4618136,STANFORD AVE / EDGEWATER RD
38.48540584,-121.4923996,21ST ST / MATSON DR
38.49109084,-121.4634092,7328 LUTHER DR
38.60858334,-121.4326769,1522 SILICA AVE
38.50422234,-121.5379108,GLORIA DR / FLORIN RD
38.5467716,-121.45895900000001,BROADWAY / SAN RAFAEL CT
38.49407763,-121.46739440000002,3500 FLORIN RD
38.49407763,-121.46739440000002,3500 FLORIN RD
38.48642245,-121.4568798,5 RESTORATION CT
38.589820200000005,-121.48125490000001,200 N 16TH ST
38.61141174,-121.43437620000002,1417 AUBURN BLVD
38.61141174,-121.43437620000002,1417 AUBURN BLVD
38.48160193,-121.4654193,3501 MEADOWVIEW RD
38.5259245,-121.4084943,5501 POWER INN RD
38.59994183,-121.4276508,1669 ARDEN WAY
38.6270814,-121.4984478,3291 TRUXEL RD
38.57421273,-121.4869021,16TH ST / CAPITOL AVE N ST ALY
38.4831539,-121.45494129999999,EL MANGO WAY / SAVANNAH LN
38.56970242,-121.49847,1920 T ST
38.56970242,-121.49847,1920 T ST
38.43922779,-121.41903290000002,8785 CENTER PKWY
38.49904003,-121.4795627,7012 WOODBINE AVE
38.58138835,-121.4622017,211 30TH ST
38.61319803,-121.42629140000001,1725 FRIENZA AVE
38.52298255,-121.43072859999998,5741 63RD ST
38.57235387,-121.4639068,3150 J ST
38.46405311,-121.4405755,5108 CAMINO ROYALE DR
38.61582702,-121.48867460000001,2808 MENDEL WAY
38.55424238,-121.41420790000001,7707 COLLEGE TOWN DR
38.60027317,-121.4252477,1701 ARDEN WAY
38.55441531,-121.4575722,STOCKTON BLVD / SHERMAN WAY
38.53952458,-121.46476170000001,14TH AVE / MARTIN LUTHER KING JR BLVD
38.44734129,-121.42878909999999,6 WINDANCE CT
38.64543073,-121.419831,4312 PINELL ST
38.63862878,-121.3815598,3555 AUBURN BLVD
38.58026647,-121.49793390000002,K ST / 7TH ST
38.46689445,-121.4170895,8001 BRUCEVILLE RD
38.57484527,-121.48218590000002,L ST / 19TH ST
38.53613202,-121.4452442,4207 52ND ST
38.57097333,-121.44083190000002,599 50TH ST
38.60093347,-121.422191,1941 WATERFORD RD
38.49407763,-121.46739440000002,3500 FLORIN RD
38.47987012,-121.48067350000001,7636 24TH ST
38.50576856,-121.41811409999998,15 CARTHAGE CT
38.60108154,-121.456171,1900 CANTERBURY RD
38.60915546,-121.44305929999999,1048 DIXIEANNE AVE
38.56465716,-121.471708,29TH ST / R ST
38.662605299999996,-121.50800759999998,4900 NATOMAS BLVD
38.608481299999994,-121.46193090000001,2293 EDGEWATER RD
38.63194620000001,-121.4826112,935 RANCHO ROBLE WAY
38.61216003,-121.45704540000001,2521 ALTOS AVE
38.52729620000001,-121.4652065,5218 MARTIN LUTHER KING JR BLVD
38.44303164,-121.4363617,5821 JACINTO AVE
38.60376214,-121.5399288,2319 MARINA GLEN WAY
38.56953204,-121.48902040000002,1726 16TH ST
38.47531506,-121.44874850000001,4551 MACK RD
38.57717555,-121.4782896,920 21ST ST
38.56957983,-121.4818568,2026 P ST
38.51016505,-121.4884492,2180 47TH AVE
38.55850838,-121.4794507,2523 BROADWAY
38.57562427,-121.47589779999998,23RD ST / J ST
38.48642245,-121.4568798,5 RESTORATION CT
38.60154457,-121.42747,1689 ARDEN WAY
38.61111345,-121.4323383,EL CAMINO AVE / VAN NESS ST
38.67744929,-121.5365419,3379 PAUMANOK WAY
38.48091284,-121.4916281,FERRAN AVE / MANORSIDE DR
38.5501848,-121.47687490000001,2745 PORTOLA WAY
38.61319529,-121.42352659999999,2605 ALBATROSS WAY
38.53600493,-121.4799575,2486 18TH AVE
38.64244876,-121.4226037,80 VILLAGE CIR
38.539734700000004,-121.4384125,3831 58TH ST
38.47435531,-121.448452,4813 MACK RD
38.51597101,-121.42994209999999,LEMON HILL AVE / 63RD ST
38.60667473,-121.4226379,1906 BOWLING GREEN DR
38.58248128,-121.4833164,16TH ST / F ST
38.53157177,-121.450006,4801 PERRY AVE
38.52420377,-121.47167179999998,5604 FRANKLIN BLVD
38.55612335,-121.4724356,ALHAMBRA BLVD / BROADWAY
38.53747149,-121.50762549999999,4101 WARREN AVE
38.53291921,-121.44466090000002,4508 53RD ST
38.62689633,-121.43780290000001,3211 PAMELA DR
38.48474254,-121.45642439999999,7528 ABIDING PL
38.57905171,-121.4976906,715 L ST
38.47531506,-121.44874850000001,4551 MACK RD
38.61775373,-121.49471940000001,1460 WOODRIDGE OAK WAY
38.44865752,-121.43008799999998,6098 WINDBREAKER WAY
38.59829761,-121.4344803,1570 RESPONSE RD
38.51235896,-121.53390890000001,6241 RIVERSIDE BLVD
38.63582718,-121.5080524,17 LYLEWOOD CT
38.51282612,-121.5319557,1 QUAY CT
38.61609551,-121.47141090000002,2808 AMERICAN AVE
38.61011609,-121.478346,2400 NORTHVIEW DR
38.553214700000005,-121.46748799999999,2631 35TH ST
38.58378853,-121.4901707,615 11TH ST
38.56360559,-121.4894825,1709 W ST
38.63995013,-121.45146650000001,625 DISPLAY WAY
38.55239225,-121.44440790000002,2501 52ND ST
38.53139129,-121.4455607,PERRY AVE / STOCKTON BLVD
38.63484756,-121.4438493,ROANOKE AVE / BRANCH ST
38.55490411,-121.48523300000001,2239 CASTRO WAY
38.64723814,-121.4199458,BELL AVE / PINELL ST
38.55280884,-121.4278994,Q ST / 65TH ST
38.57348427,-121.4678719,J ST / 29TH ST
38.49980195,-121.4149165,7608 TIERRA GLEN WAY
38.62535356,-121.51049440000001,3218 DOROTEO WAY
38.63577799,-121.4409047,3725 HAYWOOD ST
38.49324791,-121.52195859999999,1000 FLORIN RD
38.57428281,-121.47922720000001,2101 L ST
38.55347187,-121.45664920000002,X ST / STOCKTON BLVD
38.49814667,-121.5101504,S LAND PARK DR / 58TH AVE
38.5646481,-121.4911364,2204 16TH ST
38.56162032,-121.41520700000001,1255 UNIVERSITY AVE
38.57301361,-121.46584320000001,3007 J ST
38.48131474,-121.5013123,AMHERST ST / MEADOWVIEW RD
38.61448373,-121.4496149,748 LAMPASAS AVE
38.57924878,-121.46269009999999,400 ALHAMBRA BLVD
38.58370044,-121.5008344,401 I ST
38.4957722,-121.472256,3010 FLORIN RD
38.47392033,-121.49508,1901 EXPEDITION WAY
38.5680901,-121.46702720000002,1401 ALHAMBRA BLVD
38.65460722,-121.4291378,MAIN AVE / RALEY BLVD
38.45768744,-121.41766750000001,COSUMNES RIVER BLVD / BRUCEVILLE RD
38.53499467,-121.41016359999999,4410 POWER INN RD
38.57131092,-121.4851916,18TH ST / O ST P ST ALY
38.44879933,-121.44454990000001,FRANKLIN BLVD / CALVINE RD
38.62659902,-121.4467735,3217 RIO LINDA BLVD
38.52659231,-121.4721784,29TH AVE / FRANKLIN BLVD
38.52627076,-121.47151670000001,5385 FRANKLIN BLVD
38.53103324,-121.43850549999999,4901 58TH ST
38.50102291,-121.474167,2836 WAH AVE
38.62935749,-121.4511384,645 FORD RD
38.6813822,-121.53673,3381 LA CADENA WAY
38.50031738,-121.48704520000001,2163 56TH AVE
38.66763857,-121.52111770000002,18 ALDERBERRY CT
38.63338067,-121.47552569999999,NORTHGATE BLVD / PATIO AVE
38.52904451,-121.47279650000002,FRANKLIN BLVD / 26TH AVE
38.501271100000004,-121.47379479999998,INDIAN LN / WAH AVE
38.53092764,-121.473272,FRANKLIN BLVD / 24TH AVE
38.53855659,-121.47463870000001,3945 FRANKLIN BLVD
38.6361631,-121.4393403,3736 CLAY ST
38.47856755,-121.53052439999999,807 LAKE FRONT DR
38.59873136,-121.4458175,1796 TRIBUTE RD
38.63276571,-121.5061726,3611 TRUXEL RD
38.61199425,-121.4244182,1820 FRIENZA AVE
38.52864267,-121.43479440000002,5100 61ST ST
38.65543537,-121.5223763,2700 DEL PASO RD
38.61759982,-121.4755368,NORTHGATE BLVD / BOWMAN AVE
38.53966389,-121.46341809999998,3909 14TH AVE
38.44471524,-121.4052034,TOLKIEN AVE / W STOCKTON BLVD
38.52367283,-121.47145900000001,FRANKLIN BLVD / 32ND AVE
38.52488785,-121.47174709999999,FRANKLIN BLVD / FRUITRIDGE RD
38.54121247,-121.47114380000001,12TH AVE / 33RD ST
38.44254818,-121.407243,8692 MELVILLE DR
38.57094664,-121.4642182,3161 L ST
38.53913744,-121.40196920000001,8240 14TH AVE
38.52799984,-121.47253159999998,27TH AVE / FRANKLIN BLVD
38.52904451,-121.47279650000002,26TH AVE / FRANKLIN BLVD
38.52488785,-121.47174709999999,FRANKLIN BLVD / FRUITRIDGE RD
38.61346222,-121.4960693,1587 W EL CAMINO AVE
38.64448295,-121.4269185,500 EMMONS ST
38.62284309,-121.4937243,1425 PEBBLEWOOD DR
38.4599079,-121.43236609999998,8276 CENTER PKWY
38.52904451,-121.47279650000002,FRANKLIN BLVD / 26TH AVE
38.46866082,-121.4590371,4086 DEER CROSS WAY
38.45354132,-121.44221529999999,5180 VILLAGE STAR DR
38.57512017,-121.49720759999998,9TH ST / O ST
38.52627076,-121.47151670000001,5385 FRANKLIN BLVD
38.47587189,-121.4366615,5518 SEYFERTH WAY
38.60846273,-121.42216499999999,1924 SILICA AVE
38.52718667,-121.47124769999999,5303 FRANKLIN BLVD
38.64444404,-121.45762930000001,4221 NORWOOD AVE
38.54318603,-121.4758004,FRANKLIN BLVD / 10TH AVE
38.65862177,-121.51209750000001,NEW MARKET DR / NATOMAS BLVD
38.54156627,-121.46686170000001,3617 37TH ST
38.57512017,-121.49720759999998,9TH ST / O ST
38.60846198,-121.4220145,1936 SILICA AVE
38.47403927,-121.4192423,7810 STOCKTON BLVD
38.54865343,-121.3932422,OCCIDENTAL DR / JULLIARD DR
38.46528543,-121.4589055,4044 SEA DRIFT WAY
38.47054773,-121.45972140000002,4050 FAWN CIR
38.46386486,-121.4284754,101 KENNELFORD CIR
38.56881137,-121.4722229,2715 O ST
38.61383575,-121.44502460000001,DEL PASO BLVD / LAMPASAS AVE
38.51582822,-121.38543349999999,6150 SKY CREEK DR
38.63292418,-121.43059620000001,SOUTH AVE / MARYSVILLE BLVD
38.63862878,-121.3815598,3555 AUBURN BLVD
38.52627076,-121.47151670000001,5383 FRANKLIN BLVD
38.52164684,-121.4709707,34TH AVE / FRANKLIN BLVD
38.6364856,-121.4305818,GRAND AVE / BALSAM ST
38.63410671,-121.49179579999999,3640 CATTLE DR
38.52517524,-121.47274469999999,3115 FRUITRIDGE RD
38.52496323,-121.44388740000001,FRUITRIDGE RD / 53RD ST
38.58553089,-121.48429479999999,1415 D ST
38.52488785,-121.47174709999999,FRANKLIN BLVD / FRUITRIDGE RD
38.56356918,-121.4721812,29TH ST / S ST
38.61084789,-121.4630259,144 EL CAMINO AVE
38.5393973,-121.4753422,14TH AVE / FRANKLIN BLVD
38.52700121,-121.47817739999999,2761 29TH AVE
38.58067298,-121.4992289,643 K ST
38.47603764,-121.432933,5949 MACK RD
38.46816183,-121.4401696,7925 KENTWAL DR
38.5704109,-121.4841033,19TH ST / P ST
38.53092764,-121.473272,FRANKLIN BLVD / 24TH AVE
38.63589932,-121.426956,3737 JASMINE ST
38.62966165,-121.4521652,3450 TAYLOR ST
38.51314436,-121.50101310000001,FREEPORT BLVD / BLAIR AVE
38.67124986,-121.5152685,CLUB CENTER DR / DUNLAY DR
38.51385568,-121.52920890000001,6205 RIVERSIDE BLVD
38.55630084,-121.4662305,2315 34TH ST
38.620284000000005,-121.465034,131 ARCADE BLVD
38.51363418,-121.5233983,962 JOHNFER WAY
38.49463972,-121.49852890000001,1716 WAKEFIELD WAY
38.54904321,-121.4758203,5TH AVE / FRANKLIN BLVD
38.58314743,-121.49740990000002,651 I ST
38.55385441,-121.4704591,33RD ST / BROADWAY
38.60790178,-121.45544,DEL PASO BLVD / OXFORD ST
38.57396483,-121.4769139,1116 23RD ST
38.46870571,-121.46041640000001,7948 REINDEER WAY
38.52904451,-121.47279650000002,26TH AVE / FRANKLIN BLVD
38.63228581,-121.4303283,3550 MARYSVILLE BLVD
38.52731583,-121.4137192,5330 ONTARIO ST
38.67689767,-121.5118637,2220 CATHERWOOD WAY
38.4769852,-121.4374736,7716 MILLROY WAY
38.51503396,-121.418769,6129 LEMON BELL WAY
38.63862878,-121.3815598,3555 AUBURN BLVD
38.47914754,-121.4861143,2246 BABETTE WAY
38.61236933,-121.49732990000001,1590 W EL CAMINO AVE
38.52488785,-121.47174709999999,FRANKLIN BLVD / FRUITRIDGE RD
38.54231415,-121.43467209999999,6001 11TH AVE
38.54469916,-121.45269499999999,STOCKTON BLVD / 8TH AVE
38.54452845,-121.45259850000001,8TH AVE / STOCKTON BLVD
38.63482465,-121.47001159999999,MOREY AVE / WESTERN AVE
38.55555724,-121.47233840000001,3100 BROADWAY
38.58614084,-121.49245239999999,9TH ST / E ST
38.49603233,-121.4619674,FLORIN RD / MUNSON WAY
38.53293942,-121.48525159999998,2324 22ND AVE
38.48940865,-121.48293100000001,7417 TROON WAY
38.49850245,-121.4827604,24TH ST / YREKA AVE
38.63679611,-121.45693829999999,GRAND AVE / NORWOOD AVE
38.58010158,-121.49600759999998,801 K ST
38.47435531,-121.448452,4639 MACK RD
38.60888339,-121.4367656,1309 SILICA AVE
38.52367283,-121.47145900000001,32ND AVE / FRANKLIN BLVD
38.57682697,-121.47954440000001,2001 J ST
38.56776187,-121.47089799999999,2820 O ST
38.50492491,-121.41472079999998,7601 52ND AVE
38.55385441,-121.4704591,BROADWAY / 33RD ST
38.46223959,-121.4466002,FRANKLIN BLVD / COSUMNES RIVER BLVD
38.55559631,-121.48466499999999,23RD ST / 2ND AVE
38.53710124,-121.4752437,4108 FRANKLIN BLVD
38.6412195,-121.50788909999999,3950 TRUXEL RD
38.57188611,-121.46488970000001,1025 ALHAMBRA BLVD
38.58062786,-121.5014996,414 K ST
38.58165678,-121.5032275,K ST / 3RD ST
38.52488785,-121.47174709999999,FRANKLIN BLVD / FRUITRIDGE RD
38.56318807,-121.4753282,T ST / 27TH ST
38.63862878,-121.3815598,3555 AUBURN BLVD
38.57991197,-121.4966071,K ST / 8TH ST
38.63712953,-121.4376102,3813 ALDER ST
38.60683427,-121.45851029999999,1511 DEL PASO BLVD
38.57188611,-121.46488970000001,1025 ALHAMBRA BLVD
38.61157282,-121.49162390000001,2206 SANDCASTLE WAY
38.58426601,-121.504007,118 I ST
38.62806276,-121.49113529999998,1320 TUMBLEWEED WAY
38.51602543,-121.4237449,69TH ST / LEMON HILL AVE
38.57188611,-121.46488970000001,1025 ALHAMBRA BLVD
38.52488785,-121.47174709999999,FRANKLIN BLVD / FRUITRIDGE RD
38.54359005,-121.46152849999999,3409 SAN CARLOS WAY
38.53627722,-121.4745855,FRANKLIN BLVD / 18TH AVE
38.48632776,-121.4714034,7515 32ND ST
38.52488785,-121.47174709999999,FRANKLIN BLVD / FRUITRIDGE RD
38.54370562,-121.462171,3400 SAN CARLOS WAY
38.54359005,-121.46152849999999,3409 SAN CARLOS WAY
38.52799984,-121.47253159999998,27TH AVE / FRANKLIN BLVD
38.6270814,-121.4984478,3291 TRUXEL RD
38.54359005,-121.46152849999999,3409 SAN CARLOS WAY
38.60889406,-121.52826999999999,2821 RIVER PLAZA DR
38.51694262,-121.519979,1043 43RD AVE
38.47245642,-121.42726100000002,6637 VALLEY HI DR
38.63715334,-121.3829415,AUBURN BLVD / WATT AVE
38.59714644,-121.4520581,1600 EXPO PKWY
38.57188611,-121.46488970000001,1025 ALHAMBRA BLVD
38.61154129,-121.4759243,2501 NORTHGATE BLVD
38.57336692,-121.48134309999999,20TH ST / CAPITOL AVE
38.67300311,-121.4975291,5376 DASCO WAY
38.53080212,-121.472843,4901 FRANKLIN BLVD
38.47429277,-121.4503108,FRANKLIN BLVD / MACK RD
38.5857662,-121.48781609999999,415 12TH ST
38.58464151,-121.4868341,E ST / 13TH ST
38.65008296,-121.4686236,1 GOFF CT
38.51763356,-121.4229945,6905 LEMONDROP CT
38.54031271,-121.4755662,FRANKLIN BLVD / 13TH AVE
38.59664183,-121.423349,1896 ARDEN WAY
38.50591483,-121.4337511,FOWLER AVE / STOCKTON BLVD
38.53499467,-121.41016359999999,4410 POWER INN RD
38.58207989,-121.5000936,5TH ST / J ST
38.6270814,-121.4984478,3291 TRUXEL RD
38.52728547,-121.472439,5336 FRANKLIN BLVD
38.48335233,-121.4533502,7543 FRANKLIN BLVD
38.47417289,-121.4340027,5700 MACK RD
38.55727813,-121.46143219999999,2150 STOCKTON BLVD
38.58679941,-121.49109729999999,920 D ST
38.51027484,-121.42473490000002,6712 ELDER CREEK RD
38.45891145,-121.42026270000001,7173 SNOWY BIRCH WAY
38.56211513,-121.4990409,2502 RIVERSIDE BLVD
38.47434943,-121.44321599999999,5005 MACK RD
38.54739949,-121.46052420000001,4021 BROADWAY
38.49720765,-121.54304009999998,501 RIVERGATE WAY
38.61837728,-121.44154170000002,LAS PALMAS AVE / BELDEN ST
38.48694218,-121.4803426,24TH ST / 69TH AVE
38.47581524,-121.4196575,STOCKTON BLVD / MASSIE CT
38.60667473,-121.4226379,1906 BOWLING GREEN DR
38.49079582,-121.46314939999999,6 SENTIDO CT
38.62823395,-121.50401609999999,3310 WINTER PARK DR
38.5923559,-121.4926811,N B ST / N 7TH ST
38.53954773,-121.40914009999999,14TH AVE / POWER INN RD
38.47038918,-121.4223876,6600 BRUCEVILLE RD
38.57415083,-121.43470320000002,5380 ELVAS AVE
38.49284864,-121.50281100000001,OAKHURST WAY / 63RD AVE
38.5396649,-121.46422920000002,3879 14TH AVE
38.56216059,-121.4918326,2415 16TH ST
38.60700868,-121.4785648,GARDEN HWY / NORTHVIEW DR
38.55553953,-121.41495959999999,7715 COLLEGE TOWN DR
38.44376695,-121.43231270000001,6074 WYNNEWOOD WAY
38.54463119,-121.42785659999998,65TH ST / SAN JOAQUIN ST
38.61003182,-121.45937140000001,GROVE AVE / TRACTION AVE
38.61003182,-121.45937140000001,TRACTION AVE / GROVE AVE
38.47581524,-121.4196575,STOCKTON BLVD / MASSIE CT
38.54141435,-121.43260590000001,3675 62ND ST
38.52217873,-121.4768285,2810 33RD AVE
38.61747853,-121.4706061,300 BOWMAN AVE
38.48789953,-121.4562432,9 LA FRESA CT
38.56987859,-121.4910186,1417 R ST
38.48927894,-121.4742605,2851 UTAH AVE
38.57905171,-121.4976906,715 L ST
38.46598861,-121.4160666,7500 TIMBERLAKE WAY
38.48857712,-121.45668870000002,34 LA FRESA CT
38.48126775,-121.505075,MEADOWVIEW RD / FREEPORT BLVD
38.54097138,-121.45586329999999,4320 12TH AVE
38.63248017,-121.4164146,2146 SOUTH AVE
38.49297696,-121.50712859999999,7293 FARM DALE WAY
38.5000621,-121.5270041,48 PARKSHORE CIR
38.51451804,-121.3827886,20 BLUE SKY CT
38.65900657,-121.4566324,5016 SULLY ST
38.55486974,-121.38585259999998,2775 WISSEMANN DR
38.63298804,-121.41530060000001,3604 ASTORIA ST
38.66050526,-121.54094920000001,5011 TROUVILLE LN
38.55343263,-121.4291044,6438 FOLSOM BLVD
38.55128541,-121.46713179999999,3RD AVE / 36TH ST
38.58885287,-121.48477460000001,1400 A ST
38.54273614,-121.44127340000001,55TH ST / 10TH AVE
38.55906655,-121.45925049999998,3821 T ST
38.57158209,-121.47465079999999,25TH ST / CAPITOL AVE
38.51382164,-121.52692340000002,6230 GREENHAVEN DR
38.63449242,-121.5028488,3561 TRUXEL RD
38.61147666,-121.5313256,3111 TWO RIVERS DR
38.60909032,-121.450115,730 DIXIEANNE AVE
38.57120018,-121.44747240000001,760 44TH ST
38.46620664,-121.4412886,HALKEEP WAY / VALLEY HI DR
38.55768622,-121.40996559999999,7897 LA RIVIERA DR
38.47029475,-121.4661466,7901 DETROIT BLVD
38.60960014,-121.44703490000002,2408 EMPRESS ST
38.53952458,-121.46476170000001,MARTIN LUTHER KING JR BLVD / 14TH AVE
38.51229947,-121.41886470000001,6300 SUNRISE SOUTH DR
38.64966171,-121.467184,4490 SILVERTON WAY
38.4842135,-121.5017288,7533 SCHREINER ST
38.63532759,-121.45764270000001,3716 MODLIN WAY
38.62884519,-121.4578075,363 FORD RD
38.64733599,-121.42914350000001,RALEY BLVD / BELL AVE
38.5978633,-121.50258980000001,300 BERCUT DR
38.55495326,-121.38503359999999,2787 WISSEMANN DR
38.50063002,-121.4108912,8000 WAGON TRAIL WAY
38.61293518,-121.45080630000001,PLAZA AVE / OAKMONT ST
38.56643382,-121.4783751,24TH ST / R ST
38.61124309,-121.4755625,W EL CAMINO AVE / NORTHGATE BLVD
38.56286705,-121.4639956,1761 35TH ST
38.52149079,-121.39070120000001,FLORIN PERKINS RD / UNSWORTH AVE
38.63872883,-121.47653659999999,3825 ROSIN CT
38.54870584,-121.465102,2932 38TH ST
38.65263061,-121.46730190000001,4730 BOLLENBACHER AVE
38.64378844,-121.53415929999998,3301 ARENA BLVD
38.54675579,-121.45384009999998,BROADWAY / STOCKTON BLVD
38.53139385,-121.4170347,4840 QUONSET DR
38.54674127,-121.4501933,BROADWAY / 49TH ST
38.56425057,-121.43447379999999,5600 J ST
38.64731156,-121.4654754,30 W AL CT
38.53291505,-121.49404390000001,4631 FREEPORT BLVD
38.52390843,-121.376496,5700 88TH ST
38.48369463,-121.515322,1120 ALDER TREE WAY
38.5422061,-121.45274909999999,4607 11TH AVE
38.52393354,-121.44389540000002,53RD ST / YOUNG ST
38.46825223,-121.42557279999998,6536 WYNDHAM DR
38.561757,-121.4807105,2208 24TH ST
38.45718227,-121.4133413,8101 COSUMNES RIVER BLVD
38.50022327,-121.41244259999999,7835 TIERRA GLEN WAY
38.58464151,-121.4868341,13TH ST / E ST
38.57686937,-121.48165,1820 J ST
38.60154457,-121.42747,1689 ARDEN WAY
38.47425283,-121.43687690000002,CENTER PKWY / MACK RD
38.54469916,-121.45269499999999,8TH AVE / STOCKTON BLVD
38.55576316,-121.4894757,FREEPORT BLVD / CASTRO WAY
38.55539783,-121.48019380000001,26TH ST / SLOAT WAY
38.54106323,-121.47576000000001,SUTTERVILLE RD / 12TH AVE
38.57991197,-121.4966071,8TH ST / K ST
38.47259883,-121.45852169999999,4100 BLACK TAIL DR
38.61200165,-121.4490916,2419 DEL PASO BLVD
38.629651700000004,-121.47552859999999,NORTHGATE BLVD / SAN JUAN RD
38.60219485,-121.46586950000001,902 DEL PASO BLVD
38.48055239,-121.4846405,2244 KENWORTHY WAY
38.47921958,-121.4305743,23 OMAHA CT
38.54676409,-121.45677020000001,43RD ST / BROADWAY
38.55700746,-121.4676206,34TH ST / W ST
38.57383941,-121.4795487,1205 21ST ST
38.54674127,-121.4501933,BROADWAY / 49TH ST
38.51996349,-121.42935800000001,6335 MCMAHON DR
38.54454919,-121.4575843,42ND ST / 8TH AVE
38.49502927,-121.4847037,2338 FLORIN RD
38.54918489,-121.4665635,37TH ST / BROADWAY
38.59971248,-121.42847140000002,1600 ARDEN WAY
38.4656669,-121.45651709999999,8039 DEER LAKE DR
38.6162429,-121.42510490000001,1800 HELENA AVE
38.58570373,-121.49233659999999,511 9TH ST
38.6374722,-121.46295490000001,170 MORRISON AVE
38.54454919,-121.4575843,42ND ST / 8TH AVE
38.60108154,-121.456171,1900 CANTERBURY RD
38.50196814,-121.4148428,7612 TIERRA ARBOR WAY
38.55612335,-121.4724356,ALHAMBRA BLVD / BROADWAY
38.54454919,-121.4575843,42ND ST / 8TH AVE
38.60387022,-121.5139523,GARDEN HWY / GATEWAY OAKS DR
38.57167967,-121.4392594,5151 F ST
38.5923559,-121.4926811,N B ST / N 7TH ST
38.640524299999996,-121.454431,555 DISPLAY WAY
38.55612335,-121.4724356,ALHAMBRA BLVD / BROADWAY
38.54718283,-121.46472179999999,BROADWAY / MARTIN LUTHER KING JR BLVD
38.56932279,-121.50404440000001,2107 6TH ST
38.56059283,-121.4344469,58TH ST / M ST
38.47921958,-121.4305743,23 OMAHA CT
38.646911100000004,-121.5090158,TRUXEL RD / ARENA BLVD
38.54676613,-121.45661979999998,BROADWAY / 43RD ST
38.54676419,-121.4550394,BROADWAY / SAN DIEGO WAY
38.47431447,-121.4348784,5605 MACK RD
38.47584192,-121.4968374,7747 18TH ST
38.61292096,-121.43924299999999,FRIENZA AVE / CLAY ST
38.63589608,-121.5055312,3661 TRUXEL RD
38.54850275,-121.46870159999999,3550 5TH AVE
38.51730281,-121.51482820000001,6050 S LAND PARK DR
38.54850275,-121.46870159999999,3550 5TH AVE
38.53056905,-121.44018009999999,4914 58TH ST
38.501433500000005,-121.40960220000001,6900 POWER INN RD
38.61980119,-121.42501329999999,1750 AUBURN BLVD
38.50366806,-121.4116315,OTHEL CT / 53RD AVE
38.49575914,-121.4827348,24TH ST / FLORIN RD
38.48807602,-121.4564025,LA PERA CT / LA FRESA CT
38.63768815,-121.4597918,300 MORRISON AVE
38.62159114,-121.43160729999998,1508 TESSA AVE
38.44973707,-121.4180465,CALVINE RD / BRUCEVILLE RD
38.54802942,-121.4666875,37TH ST / 5TH AVE
38.54469916,-121.45269499999999,8TH AVE / STOCKTON BLVD
38.44973707,-121.4180465,CALVINE RD / BRUCEVILLE RD
38.51282875,-121.5319277,1 QUAY CT
38.507324,-121.41346399999999,50TH AVE / SUN RIVER DR
38.52393354,-121.44389540000002,53RD ST / YOUNG ST
38.66611003,-121.5327875,2500 NEW MARKET DR
38.55700746,-121.4676206,34TH ST / W ST
38.58615671,-121.4879497,12TH ST / D ST
38.59284733,-121.4827304,1214 MCCARTHY CT
38.54337336,-121.46217,3430 SAN CARLOS WAY
38.46528532,-121.45712420000001,4136 SEA MEADOW WAY
38.53587459,-121.41256159999999,79TH ST / 18TH AVE
38.64094112,-121.4198325,4000 PINELL ST
38.52921623,-121.3846751,5800 WAREHOUSE WAY
38.60611091,-121.46654009999999,ARDEN WAY / ACOMA ST
38.65535922,-121.4719145,PELL DR / MAIN AVE
38.57150442,-121.48363020000001,19TH ST / O ST
38.63369822,-121.42441799999999,1801 SOUTH AVE
38.54472379999999,-121.4650094,3224 MARTIN LUTHER KING JR BLVD
38.62873062,-121.5222297,3351 DUCKHORN DR
38.528628499999996,-121.49589909999999,IRVIN WAY / FREEPORT BLVD
38.48764914,-121.491119,7462 WINKLEY WAY
38.50578888,-121.4101987,7800 51ST AVE
38.50123749,-121.48277900000001,WAH AVE / 24TH ST
38.56019414,-121.3952354,LA RIVIERA DR / OCCIDENTAL DR
38.51402327,-121.41059550000001,ELDER GLEN WAY / 43RD AVE
38.55792771,-121.43863999999999,5600 FOLSOM BLVD
38.53587459,-121.41256159999999,18TH AVE / 79TH ST
38.44083226,-121.4116006,8624 W WING DR
38.54674127,-121.4501933,BROADWAY / 49TH ST
38.52199137,-121.49901489999999,5770 FREEPORT BLVD
38.56429883,-121.38316940000001,8625 LA RIVIERA DR
38.44227407,-121.4127165,7659 MASTERS ST
38.62984691,-121.48352959999998,827 SAN JUAN RD
38.57402607,-121.4944065,1100 O ST
38.47528199,-121.43788870000002,7770 CENTER PKWY
38.52563317,-121.44216229999999,5555 STOCKTON BLVD
38.58026647,-121.49793390000002,K ST / 7TH ST
38.52506502,-121.41443329999998,WILKINSON ST / FRUITRIDGE RD
38.63629375,-121.4141322,2248 GRAND AVE
38.60134944,-121.46713559999999,902 DEL PASO BLVD
38.52023278,-121.40808359999998,8110 36TH AVE
38.54721929,-121.4303709,6321 BROADWAY
38.61309746,-121.49870370000001,1611 W EL CAMINO AVE
38.6194093,-121.46471149999999,LINDLEY DR / REDONDO AVE
38.57368379,-121.4791371,2110 L ST
38.59875634,-121.4211729,1901 ARDEN WAY
38.60387022,-121.5139523,GATEWAY OAKS DR / GARDEN HWY
38.5797446,-121.49726940000001,718 K ST
38.54469916,-121.45269499999999,8TH AVE / STOCKTON BLVD
38.51658451,-121.5236897,941 43RD AVE
38.53029154,-121.3906925,FLORIN PERKINS RD / 24TH AVE
38.48230213,-121.4530858,BROOKFIELD DR / FRANKLIN BLVD
38.47138354,-121.4263125,6630 VALLEY HI DR
38.48230213,-121.4530858,BROOKFIELD DR / FRANKLIN BLVD
38.54674127,-121.4501933,49TH ST / BROADWAY
38.65008296,-121.4686236,1 GOFF CT
38.48728104,-121.45610459999999,LA FRESA CT / SHINING STAR DR
38.6230651,-121.4248084,3025 ACADEMY WAY
38.52224238,-121.49800990000001,CLAUDIA DR / FREEPORT BLVD
38.61437028,-121.5171426,W EL CAMINO AVE / GATEWAY OAKS DR
38.50108389,-121.5264068,26 PARKSHORE CIR
38.57164676,-121.4701627,28TH ST / L ST
38.54068756,-121.4384155,3741 58TH ST
38.51718828,-121.388176,8541 YOUNGER CREEK DR
38.63446175,-121.44528059999999,3637 CYPRESS ST
38.61112822,-121.4642627,COLFAX ST / EL CAMINO AVE
38.53085892,-121.49606509999998,4850 FREEPORT BLVD
38.49142905,-121.4582078,4120 DOSS WAY
38.48367557,-121.4885865,7559 SKELTON WAY
38.4925509,-121.49872169999999,7289 17TH ST
38.53159017,-121.4734384,FRANKLIN BLVD / ATLAS AVE
38.55013285,-121.3894636,8545 FOLSOM BLVD
38.6322434,-121.4430679,3525 MAY ST
38.56796664,-121.48525420000001,1814 19TH ST
38.61138598,-121.4472415,845 EL CAMINO AVE
38.57884551,-121.4925953,K ST / 11TH ST
38.5797426,-121.4987072,600 K ST
38.47431447,-121.4348784,5637 MACK RD
38.50476176,-121.526669,50 PARKLITE CIR
38.52363278,-121.51759550000001,5627 GREENBRAE RD
38.55642737,-121.455081,4240 U ST
38.56940229,-121.47113770000001,N ST / 28TH ST
38.62054971,-121.4595717,295 LINDLEY DR
38.51207103,-121.4231478,6305 PANTANO DR
38.50553737,-121.43573909999998,6001 RIZA AVE
38.48943682,-121.4561511,7376 FRANKLIN BLVD
38.62645306,-121.4854095,1085 WESTWARD WAY
38.6172378,-121.5107812,2832 AQUINO DR
38.54097213,-121.4708274,3300 12TH AVE
38.57686937,-121.48165,1820 J ST
38.52663259,-121.49599009999999,5301 FREEPORT BLVD
38.55529508,-121.4106183,COLLEGE TOWN DR / LA RIVIERA DR
38.53881527,-121.47901399999999,2750 SUTTERVILLE RD
38.57274295,-121.46968580000001,K ST / 28TH ST
38.62863295,-121.4547111,480 FORD RD
38.53881527,-121.47901399999999,2750 SUTTERVILLE RD
38.53881527,-121.47901399999999,2750 SUTTERVILLE RD
38.53881527,-121.47901399999999,2750 SUTTERVILLE RD
38.53881527,-121.47901399999999,2750 SUTTERVILLE RD
38.53881527,-121.47901399999999,2750 SUTTERVILLE RD
38.54654313,-121.46119499999999,3015 SAN CARLOS WAY
38.51333061,-121.5197132,6172 FENNWOOD CT
38.4941233,-121.51196340000001,1239 WOODFIELD AVE
38.59891162,-121.4258885,1696 ARDEN WAY
38.5790295,-121.4919713,1017 11TH ST
38.60504898,-121.5213875,1396 GARDEN HWY
38.49940254,-121.4627597,7000 FRANKLIN BLVD
38.5605653,-121.4887384,1828 BROADWAY
38.53789577,-121.44887,16TH AVE / STOCKTON BLVD
38.60961727,-121.4803865,704 NORTHFIELD DR
38.56181353,-121.466574,3324 S ST
38.62718153,-121.50641780000001,1954 SAN JUAN RD
38.49849968,-121.54410109999999,53 YUBA RIVER CIR
38.49601155,-121.45927720000002,FLORIN RD / FRANKLIN BLVD
38.46807374,-121.4452487,4802 BANDALIN WAY
38.50646635,-121.4149108,7607 BELLINI WAY
38.50557133,-121.43313880000001,6685 STOCKTON BLVD
38.52502344,-121.43534380000001,FRUITRIDGE RD / CABRILLO WAY
38.64744173,-121.43842169999999,BELL AVE / DRY CREEK RD
38.62984691,-121.48352959999998,827 SAN JUAN RD
38.63862878,-121.3815598,3555 AUBURN BLVD
38.48259396,-121.5173976,7565 GREENHAVEN DR
38.53381252,-121.41367279999999,4530 78TH ST
38.65008296,-121.4686236,1 GOFF CT
38.53907886,-121.43455790000002,3912 60TH ST
38.61446329,-121.4487821,2589 BEAUMONT ST
38.53885224,-121.469623,3921 TEMPLE AVE
38.61138219,-121.4563024,463 EL CAMINO AVE
38.54967957,-121.47748700000001,2708 PORTOLA WAY
38.56664992,-121.49176909999998,2024 15TH ST
38.63700441,-121.45920179999999,373 MOBLEY AVE
38.53464567,-121.4805652,4425 JEFFREY AVE
38.60643287,-121.5128115,2240 GATEWAY OAKS DR
38.62306819,-121.45966809999999,285 ARCADE BLVD
38.47620226,-121.49824609999999,22 CAPRICE CT
38.59803706,-121.4206574,1919 ARDEN WAY
38.51027649,-121.5275585,57 STARLIT CIR
38.63862878,-121.3815598,3555 AUBURN BLVD
38.61124309,-121.4755625,W EL CAMINO AVE / NORTHGATE BLVD
38.56796664,-121.48525420000001,1814 19TH ST
38.5149777,-121.43512620000001,6000 LEMON HILL AVE
38.4802355,-121.5128862,7611 RIVER RANCH WAY
38.58052209,-121.49862479999999,545 K ST
38.55463655,-121.46976090000001,3309 1ST AVE
38.58138778,-121.48379299999999,16TH ST / G ST
38.53880039,-121.44797150000001,4925 15TH AVE
38.61355621,-121.5019273,2633 MILLCREEK DR
38.63078873,-121.4737594,501 W SILVER EAGLE RD
38.48151147,-121.4684313,DETROIT BLVD / MEADOWVIEW RD
38.52075518,-121.5130396,1180 35TH AVE
38.55792771,-121.43863999999999,5600 FOLSOM BLVD
38.61177605,-121.43644520000001,1334 CANNON ST
38.59683138,-121.4384528,RESPONSE RD / RIVER PARK DR
38.47191051,-121.4581288,4120 DEERBROOK DR
38.48850041,-121.5444584,6 WATERFRONT CT
38.50191712,-121.54309040000001,6890 SAILBOAT WAY
38.61228167,-121.4935963,2500 SEAMIST DR
38.61223993,-121.5212308,23 GLENTRESS CT
38.60769565,-121.51929799999999,2301 RIVER PLAZA DR
38.52101974,-121.5080745,5831 ANNRUD WAY
38.67056705,-121.51878629999999,140 EASTBROOK WAY
38.49926989,-121.553597,254 RIVERTREE WAY
38.66220298,-121.52545149999999,4878 WATSEKA WAY
38.61266409,-121.4988152,1620 W EL CAMINO AVE
38.48131474,-121.5013123,MEADOWVIEW RD / AMHERST ST
38.61655961,-121.4438554,BRANCH ST / ELEANOR AVE
38.58794604,-121.4809362,N 16TH ST / A ST
38.68189146,-121.5384257,CHANGO CIR / LA CASA WAY
38.51275183,-121.50488119999999,6220 BELLEAU WOOD LN
38.61323987,-121.4438778,2604 EVERGREEN ST
38.55724607,-121.4693534,3250 W ST
38.52280382,-121.5189888,1087 35TH AVE
38.54045668,-121.46147520000001,3735 SAN CARLOS WAY
38.47384217,-121.43995749999999,5152 MACK RD
38.64916432,-121.44201470000002,1064 ANDY CIR
38.4741392,-121.45849960000001,DEER MEADOW DR / DEER RUN WAY
38.66207022,-121.4477449,MARYSVILLE BLVD / RIO LINDA BLVD
38.54455719,-121.4616506,8TH AVE / SAN CARLOS WAY
38.50832179,-121.50404180000001,6550 FREEPORT BLVD
38.58102199,-121.496127,8TH ST / J ST
38.54718282,-121.4599909,4033 BROADWAY
38.54222569,-121.4717377,3265 11TH AVE
38.61310039999999,-121.42101799999999,1949 FRIENZA AVE
38.47390639,-121.43791350000001,7804 CENTER PKWY
38.60909032,-121.450115,730 DIXIEANNE AVE
38.46423037,-121.4175338,BRUCEVILLE RD / HOSPITAL DR
38.573298799999996,-121.41356869999998,424 HOWE AVE
38.63404292,-121.4897763,3594 DEL SOL WAY
38.48142831,-121.48033729999999,24TH ST / MEADOWVIEW RD
38.539564299999995,-121.4134753,14TH AVE / W RAILROAD AVE
38.52700121,-121.47817739999999,2761 29TH AVE
38.62464848,-121.449463,689 ARCADE BLVD
38.62419251,-121.44885390000002,760 ARCADE BLVD
38.50569574,-121.42607179999999,6716 RANCHO GRANDE WAY
38.62609952,-121.4861821,3149 PARODY WAY
38.618059499999994,-121.4388561,2848 DEL PASO BLVD
38.62979979,-121.43181489999999,1528 LOS ROBLES BLVD
38.5546595,-121.47661129999999,2853 2ND AVE
38.61103972,-121.46057820000001,236 1/2 EL CAMINO AVE
38.54118256,-121.45639309999999,12TH AVE / 43RD ST
38.48863496,-121.4667537,3585 STARSTONE WAY
38.53196771,-121.41430679999999,BRADFORD DR / 21ST AVE
38.52289638,-121.51945659999998,1071 35TH AVE
38.52328826,-121.44105159999998,5695 STOCKTON BLVD
38.61970536,-121.44419840000002,2875 BRANCH ST
38.546706,-121.44054299999999,BROADWAY / 56TH ST
38.53941555,-121.44971480000001,STOCKTON BLVD / 14TH AVE
38.53259694,-121.4941406,4635 FREEPORT BLVD
38.54031312,-121.45021840000001,STOCKTON BLVD / 13TH AVE
38.56216655,-121.49319299999999,1515 BROADWAY
38.44093769,-121.40430959999999,8686 W STOCKTON BLVD
38.57586881,-121.4765362,2231 J ST
38.645494,-121.42315330000001,35 VILLAGE GREEN DR
38.57486746,-121.4153398,HOWE AVE / FAIR OAKS BLVD
38.65148271,-121.52607959999999,4400 E COMMERCE WAY
38.61665653,-121.4596922,2689 GROVE AVE
38.61437028,-121.5171426,W EL CAMINO AVE / GATEWAY OAKS DR
38.55925109,-121.3971144,8358 LA RIVIERA DR
38.62541828,-121.433145,MARYSVILLE BLVD / ARCADE BLVD
38.5576326,-121.4145472,7761 COLLEGE TOWN DR
38.55689825,-121.43082520000002,1362 61ST ST
38.52199137,-121.49901489999999,5770 FREEPORT BLVD
38.63259773,-121.44023999999999,1118 SOUTH AVE
38.53481251,-121.41866040000001,4353 73RD ST
38.5149777,-121.43512620000001,6000 LEMON HILL AVE
38.64384893,-121.4613242,290 JESSIE AVE
38.56987859,-121.4910186,1417 R ST
38.61357719,-121.4518514,664 BOWLES ST
38.51048773,-121.40600800000001,8174 ELDER CREEK RD
38.57042066,-121.4740683,2525 N ST
38.65407136,-121.5048798,4451 GATEWAY PARK BLVD
38.61533617,-121.4603742,261 LAMPASAS AVE
38.52718667,-121.47124769999999,5303 FRANKLIN BLVD
38.52341067,-121.498935,1631 CLAUDIA DR
38.61499077,-121.45347140000001,535 LAMPASAS AVE
38.57763638,-121.49238700000001,1101 L ST
38.55128541,-121.46713179999999,36TH ST / 3RD AVE
38.54106323,-121.47576000000001,FRANKLIN BLVD / SUTTERVILLE RD
38.52607558,-121.49608490000001,5401 FREEPORT BLVD
38.53499467,-121.41016359999999,4410 POWER INN RD
38.57912112,-121.49723540000001,729 L ST
38.57396483,-121.4769139,1116 23RD ST
38.60027317,-121.4252477,1701 ARDEN WAY
38.52500301,-121.4239591,6606 FRUITRIDGE RD
38.52497346,-121.44259040000001,FRUITRIDGE RD / STOCKTON BLVD
38.46337225,-121.41617179999999,7500 HOSPITAL DR
38.54146972,-121.4254625,6879 14TH AVE
38.56717253,-121.4765615,Q ST / 25TH ST
38.55200185,-121.46410520000002,3743 2ND AVE
38.49626332,-121.5458973,431 RIVERGATE WAY
38.53881527,-121.47901399999999,2750 SUTTERVILLE RD
38.68031847,-121.51894109999998,5789 PALMERA LN
38.51969967,-121.41177549999999,37TH AVE / 79TH ST
38.63647881,-121.4297591,MARYSVILLE BLVD / GRAND AVE
38.56796664,-121.48525420000001,1814 19TH ST
38.60846273,-121.42216499999999,1924 SILICA AVE
38.63228581,-121.4303283,3550 MARYSVILLE BLVD
38.66611003,-121.5327875,2500 NEW MARKET DR
38.58026647,-121.49793390000002,K ST / 7TH ST
38.59664183,-121.423349,1896 ARDEN WAY
38.570664,-121.465448,1125 ALHAMBRA BLVD
38.53331244,-121.44535,4445 52ND ST
38.63980996,-121.4578571,3950 RESEARCH DR
38.55982551,-121.4866209,2000 BROADWAY
38.57203045,-121.46701180000001,K ST / 30TH ST
38.65829164,-121.45583590000001,416 SANTA ANA AVE
38.51496871,-121.43161029999999,6244 LEMON HILL AVE
38.62488515,-121.43305819999999,1501 STRADER AVE
38.52815739,-121.49052959999999,2200 IRVIN WAY
38.65829164,-121.45583590000001,416 SANTA ANA AVE
38.65829164,-121.45583590000001,416 SANTA ANA AVE
38.61278526,-121.4447038,950 FRIENZA AVE
38.57858559,-121.4641608,E ST / 30TH ST
38.48131474,-121.5013123,MEADOWVIEW RD / AMHERST ST
38.53564837,-121.42326840000001,4321 69TH ST
38.48005429,-121.4722254,3100 MEADOWVIEW RD
38.60154457,-121.42747,1689 ARDEN WAY
38.568940500000004,-121.49690490000002,11TH ST / T ST
38.63648582,-121.45401729999999,GRAND AVE / LINDSAY AVE
38.60931329,-121.45196809999999,DIXIEANNE AVE / CANTALIER ST
38.52461457,-121.5043061,FRUITRIDGE RD / GILGUNN WAY
38.60873292,-121.48096340000001,2201 NORTHVIEW DR
38.62782124,-121.4561105,419 VISTA NUEVO AVE
38.6677344,-121.43732299999999,5444 DRY CREEK RD
38.54276486,-121.4653703,3510 MARTIN LUTHER KING JR BLVD
38.51178862,-121.4434098,5351 47TH AVE
38.50844502,-121.42287649999999,6975 CASA DEL ESTE WAY
38.5695415,-121.40908400000001,HOWE AVE / AMERICAN RIVER DR
38.48728104,-121.45610459999999,SHINING STAR DR / LA FRESA CT
38.54049185,-121.47631659999999,3710 FRANKLIN BLVD
38.56211513,-121.4990409,2502 RIVERSIDE BLVD
38.57227839,-121.41922959999998,100 CADILLAC DR
38.57400282,-121.4116111,2270 FAIR OAKS BLVD
38.53118274,-121.49475890000002,STACIA WAY / SHIELAH WAY
38.57167833,-121.4656818,ALHAMBRA BLVD / K ST
38.58052209,-121.49862479999999,545 K ST
38.55450173,-121.46731059999999,2506 35TH ST
38.63020663,-121.4959999,3301 FONG RANCH RD
38.63431541,-121.5057628,3641 TRUXEL RD
38.48541682,-121.5355101,7465 RUSH RIVER DR
38.51416166,-121.5188199,6244 GLORIA DR
38.57995276,-121.49211509999998,J ST / 11TH ST
38.61894976,-121.43614699999999,2920 DEL PASO BLVD
38.65798545,-121.54188300000001,4800 WESTLAKE PKWY
38.57275737,-121.4674436,2901 K ST
38.44520109,-121.42579640000001,CENTER PKWY / JACINTO AVE
38.62295305,-121.42768659999999,JUDAH ST / ELDRIDGE AVE
38.61656909,-121.50720179999999,2813 AZEVEDO DR
38.48126775,-121.505075,FREEPORT BLVD / POCKET RD
38.61953342,-121.42032169999999,2936 CONNIE DR
38.61496628,-121.4483057,801 LAMPASAS AVE
38.55863257,-121.37932250000001,WATT AVE / US 50 EB
38.63589608,-121.5055312,3661 TRUXEL RD
38.58314743,-121.49740990000002,651 I ST
38.61896279,-121.48555449999999,2876 WIESE WAY
38.62034607,-121.5049355,1921 OAK BLUFF WAY
38.54828207,-121.4601784,4TH AVE / SANTA CRUZ WAY
38.53826519,-121.46795619999999,4008 36TH ST
38.501249200000004,-121.50747690000001,6854 BUENA TERRA WAY
38.54115653,-121.47393079999999,HWY 99 SB / 12TH AVE
38.46639439,-121.4269149,6460 VALLEY HI DR
38.60504898,-121.5213875,1396 GARDEN HWY
38.477379600000006,-121.49619779999999,LYTLE ST / 71ST AVE
38.52472122,-121.497206,FREEPORT BLVD / FRUITRIDGE RD
38.57122734,-121.47332779999999,26TH ST / CAPITOL AVE
38.57669401,-121.47989869999999,J ST / 20TH ST
38.48151866,-121.47784240000001,2451 MEADOWVIEW RD
38.52507079,-121.41993870000002,BELLEVIEW AVE / FRUITRIDGE RD
38.47514785,-121.53298500000001,7974 POCKET RD
38.61571266,-121.49389740000002,2750 STONECREEK DR
38.45718227,-121.4133413,8101 COSUMNES RIVER BLVD
38.59664183,-121.423349,1896 ARDEN WAY
38.68319931,-121.49829440000002,1630 HALO WAY
38.58203886,-121.5046032,2ND ST / K ST
38.49536955,-121.48960690000001,2136 FLORIN RD
38.5527076,-121.46947800000001,34TH ST / BROADWAY
38.48005429,-121.4722254,3100 MEADOWVIEW RD
38.45156394,-121.43200630000001,6145 CALVINE RD
38.57912112,-121.49723540000001,729 L ST
38.47471535,-121.4393847,5235 MACK RD
38.6308718,-121.53080600000001,3131 SPARROW DR
38.61499077,-121.45347140000001,535 LAMPASAS AVE
38.58370044,-121.5008344,401 I ST
38.58033768,-121.48538529999999,805 15TH ST
38.49958712,-121.476662,2705 57TH AVE
38.53533971,-121.4164746,4332 76TH ST
38.570356700000005,-121.4898435,1500 Q ST
38.46009782,-121.41973970000001,ALPINE FROST DR / COVEY CREEK WAY
38.55218939,-121.47265,32ND ST / 3RD AVE 4TH AVE ALY
38.56820709,-121.4679847,1415 30TH ST
38.58354799,-121.4873108,13TH ST / F ST
38.65172566,-121.46458429999998,90 MARILYN CIR
38.60570671,-121.42899380000001,2223 ROYALE RD
38.62484479,-121.497487,6 SAGINAW CIR
38.59723293,-121.50223030000001,RICHARDS BLVD / BERCUT DR
38.4711106,-121.4355743,7890 CENTER PKWY
38.55575132,-121.41177900000001,7767 LA RIVIERA DR
38.67087264,-121.5229629,6 SOUTHBURY WAY
38.54812095,-121.40974740000001,2800 POWER INN RD
38.56987859,-121.4910186,1417 R ST
38.53296283,-121.46736990000001,3637 22ND AVE
38.53549266,-121.4802304,2561 19TH AVE
38.53549266,-121.4802304,2561 19TH AVE
38.57905171,-121.4976906,715 L ST
38.55450173,-121.46731059999999,2506 35TH ST
38.63449242,-121.5028488,3561 TRUXEL RD
38.62130658,-121.4958913,1510 PEBBLEWOOD DR
38.50583253,-121.5395568,456 FLORIN RD
38.47433721,-121.4189709,STOCKTON BLVD / MACK RD
38.5820092,-121.44366299999999,4201 BREUNER AVE
38.63018236,-121.4331176,1523 LOS ROBLES BLVD
38.43856722,-121.41709009999998,7401 SHELDON RD
38.59683958,-121.42060759999998,1949 ARDEN WAY
38.62616159,-121.47978629999999,3224 NORTHSTEAD DR
38.5126813,-121.4800469,6225 HERMOSA ST
38.48585582,-121.4817969,7509 BALFOUR WAY
38.51342719,-121.42033390000002,6217 HOMESTEAD WAY
38.56726042,-121.47535420000001,1626 26TH ST
38.55945974,-121.3825223,53 MOSSGLEN CIR
38.62631527,-121.5054717,1911 BANDON WAY
38.56987859,-121.4910186,1417 R ST
38.5057826,-121.4359118,6001 RIZA AVE
38.49348469,-121.483782,2357 N MANOR DR
38.62852509,-121.5059604,3410 SHADOW TREE DR
38.57495865,-121.418725,22 CADILLAC DR
38.626506299999996,-121.47645490000001,3260 NORDYKE DR
38.55783227,-121.41006580000001,7901 LA RIVIERA DR
38.51411577,-121.3794544,8711 YOUNGER CREEK DR
38.56820709,-121.4679847,1415 30TH ST
38.48354243,-121.47845290000001,7582 SAN FELICE CIR
38.6242435,-121.45091869999999,3124 FAIRFIELD ST
38.50026653,-121.5340717,741 WESTLITE CIR
38.44736484,-121.4263377,8545 DERLIN WAY
38.51651763,-121.4211301,6071 71ST ST
38.68378949,-121.4963494,5948 MEEKS WAY
38.64634156,-121.45297190000001,549 FRANESI WAY
38.61449911,-121.4569471,NORWOOD AVE / NORWOOD BYP
38.5923559,-121.4926811,N 7TH ST / N B ST
38.61359368,-121.4495378,752 BOWLES ST
38.65733301,-121.49521270000001,4601 BLACKROCK DR
38.54431922,-121.4731872,3333 32ND ST
38.51253489,-121.51919779999999,6288 FENNWOOD CT
38.61060918,-121.44328940000001,1010 EL CAMINO AVE
38.5606351,-121.4391818,1373 54TH ST
38.60086039,-121.43296229999999,2001 POINT WEST WAY
38.57223488,-121.4732784,2526 L ST
38.57851802,-121.47761509999998,21ST ST / H ST
38.46501315,-121.42857450000001,6429 VALLEY HI DR
38.63862878,-121.3815598,3555 AUBURN BLVD
38.64268311,-121.4522087,4074 TAYLOR ST
38.5797628,-121.48331509999998,800 17TH ST
38.57520727,-121.48024540000002,2000 K ST
38.50741683,-121.48731570000001,2211 MANGRUM AVE
38.55451604,-121.46743640000001,2500 35TH ST
38.61483626,-121.4458043,2600 RIO LINDA BLVD
38.61040293,-121.46004750000002,279 REDWOOD AVE
38.48467865,-121.4591953,7511 MANDY DR
38.58576729999999,-121.4818932,16TH ST / C ST
38.58033768,-121.48538529999999,805 15TH ST
38.5696461,-121.4156239,707 COMMONS DR
38.53396253,-121.44177909999999,4417 55TH ST
38.5102751,-121.42368300000001,6830 ELDER CREEK RD
38.47692109,-121.4930712,2020 DANVERS WAY
38.54255771,-121.472889,3208 10TH AVE
38.53396253,-121.44177909999999,4417 55TH ST
38.58026647,-121.49793390000002,7TH ST / K ST
38.62677344,-121.4926777,2 KELSO CIR
38.54990015,-121.46625390000001,37TH ST / 4TH AVE
38.59589147,-121.4911584,RICHARDS BLVD / N 7TH ST
38.47638719,-121.50291509999998,7740 REENEL WAY
38.628906,-121.5044945,3341 WINTER PARK DR
38.61063309,-121.43069720000001,2455 PRINCETON ST
38.5780775,-121.4731163,715 24TH ST
38.51597101,-121.42994209999999,63RD ST / LEMON HILL AVE
38.58860652,-121.4849513,1400 A ST
38.61112465,-121.45935959999998,EL CAMINO AVE / GROVE AVE
38.63609026,-121.44416869999999,3735 BRANCH ST
38.54119139,-121.46476670000001,MARTIN LUTHER KING JR BLVD / 12TH AVE
38.65206911,-121.4640355,83 MARILYN CIR
38.50643521,-121.4306788,6239 BOBBIWOOD WAY
38.53881527,-121.47901399999999,2750 SUTTERVILLE RD
38.53881527,-121.47901399999999,2750 SUTTERVILLE RD
38.48267497,-121.4803387,24TH ST / NEDRA CT
38.64316291,-121.47458190000002,4100 NORTHGATE BLVD
38.52199137,-121.49901489999999,5770 FREEPORT BLVD
38.61035378,-121.4960597,1570 WATERWHEEL DR
38.60134944,-121.46713559999999,902 DEL PASO BLVD
38.66146903,-121.4392007,1130 CLAIRE AVE
38.53881527,-121.47901399999999,2750 SUTTERVILLE RD
38.53881527,-121.47901399999999,2750 SUTTERVILLE RD
38.53881527,-121.47901399999999,2750 SUTTERVILLE RD
38.49574798,-121.4857747,TAMOSHANTER WAY / FLORIN RD
38.48164219,-121.5033851,1441 MEADOWVIEW RD
38.53690358,-121.5122827,1121 BROWNWYK DR
38.48164219,-121.5033851,1441 MEADOWVIEW RD
38.55614777,-121.4267606,65TH ST / ELVAS AVE
38.51055016,-121.40908300000001,ELDER CREEK RD / POWER INN RD
38.58314743,-121.49740990000002,651 I ST
38.52561869,-121.4442877,5400 STOCKTON BLVD
38.57661853,-121.48884369999999,L ST / 14TH ST
38.55155803,-121.46849350000001,BROADWAY / 35TH ST
38.49572235,-121.49240320000001,20TH ST / FLORIN RD
38.47380451,-121.42667379999999,6500 MACK RD
38.54218087,-121.40909380000001,RAMONA AVE / POWER INN RD
38.60840673,-121.4495674,2364 CAMBRIDGE ST
38.47529548,-121.422795,26 MASSIE CT
38.61795278,-121.5215494,2814 ROSEAU WAY
38.60154457,-121.42747,1689 ARDEN WAY
38.62718796,-121.50150649999999,151 DEL VERDE CIR
38.53881527,-121.47901399999999,2750 SUTTERVILLE RD
38.54829616,-121.5044528,1130 TENEIGHTH WAY
38.61800953,-121.44616119999999,RIO LINDA BLVD / PRICE CT
38.47425283,-121.43687690000002,CENTER PKWY / MACK RD
38.5171811,-121.5265412,6001 RIVERSIDE BLVD
38.58062786,-121.5014996,414 K ST
38.5319734,-121.41761029999999,21ST AVE / CONCORD RD
38.5304331,-121.4149241,4961 PRISCILLA LN
38.56416411,-121.5029821,820 BROADWAY
38.4749354,-121.4366375,5595 MACK RD
38.51786994,-121.47371090000001,3090 38TH AVE
38.62273062,-121.487505,1181 PEBBLEWOOD DR
38.57411211,-121.415297,HOWE AVE / FAIR OAKS BLVD
38.61475022,-121.44848940000001,BEAUMONT ST / LAMPASAS AVE
38.66207022,-121.4477449,MARYSVILLE BLVD / RIO LINDA BLVD
38.47421612,-121.42716999999999,MACK RD / VALLEY HI DR
38.60154457,-121.42747,1689 ARDEN WAY
38.47341184,-121.4266735,6680 VALLEY HI DR
38.5827398,-121.47184340000001,2322 C ST
38.56201402,-121.4972545,2505 RIVERSIDE BLVD
38.59714644,-121.4520581,1600 EXPO PKWY
38.5316187,-121.41262809999999,79TH ST / TORONTO WAY
38.54621012,-121.45926750000001,3129 SAN JOSE WAY
38.60434893,-121.5187747,1395 GARDEN HWY
38.53525168,-121.43301149999999,4328 62ND ST
38.525664299999995,-121.5214479,I 5 SB / SEAMAS AVE
38.47345298,-121.4355908,5500 MACK RD
38.62009591,-121.4196871,MARCONI AVE / BUS 80 WB
38.61314172,-121.4912208,2634 STONECREEK DR
38.54374161,-121.4453634,5201 9TH AVE
38.45646666,-121.4289082,6375 SUMMERTIDE WAY
38.5038971,-121.40969709999999,7961 53RD AVE
38.63655425,-121.43619679999999,FELL ST / GRAND AVE
38.54888945,-121.41075159999998,8000 FOLSOM BLVD
38.60244653,-121.42717579999999,1651 ARDEN WAY
38.5248104,-121.483171,FRUITRIDGE RD / 24TH ST
38.63747898,-121.50389579999998,TRUXEL RD / GATEWAY PARK BLVD
38.5074829,-121.55145230000001,6565 SURFSIDE WAY
38.53580637,-121.4623494,4315 MARTIN LUTHER KING JR BLVD
38.53942587,-121.4743771,30TH ST / 14TH AVE
38.53078353,-121.47479380000001,2951 24TH AVE
38.45160088,-121.442412,5211 CRYSTAL HILL WAY
38.63757642,-121.5061358,3701 TRUXEL RD
38.51187331,-121.4111584,7931 CAPISTRANO WAY
38.64316291,-121.47458190000002,4100 NORTHGATE BLVD
38.61632706,-121.43721070000001,1288 HELENA AVE
38.47765971,-121.4955741,7684 19TH ST
38.64316291,-121.47458190000002,4100 NORTHGATE BLVD
38.57449124,-121.49152439999999,1230 N ST
38.53167806,-121.4162179,4820 76TH ST
38.60918188,-121.4259738,2400 CORMORANT WAY
38.49549964,-121.51211119999999,FLORIN RD / S LAND PARK DR
38.63371631,-121.468434,41 SOUTH AVE
38.60244653,-121.42717579999999,1651 ARDEN WAY
38.47935079,-121.4497304,4588 BARBEE WAY
38.48024087,-121.4372628,5601 LERNER WAY
38.50946788,-121.4353935,STOCKTON BLVD / 48TH AVE
38.63747898,-121.50389579999998,TRUXEL RD / GATEWAY PARK BLVD
38.55067613,-121.4618597,3946 2ND AVE
38.47431447,-121.4348784,5605 MACK RD
38.52652786,-121.4443436,5330 STOCKTON BLVD
38.63862878,-121.3815598,3555 AUBURN BLVD
38.61586018,-121.4445924,950 ELEANOR AVE
38.53959757,-121.4261348,14TH AVE / 67TH ST
38.55300441,-121.4269117,6800 FOLSOM BLVD
38.55193597,-121.4541222,4422 Y ST
38.50564851,-121.55213130000001,241 RIVERBROOK WAY
38.51909867,-121.52275359999999,5953 RIVERSIDE BLVD
38.48740644,-121.4570784,4359 SHINING STAR DR
38.51798405,-121.4283253,5956 64TH ST
38.65357208,-121.50951270000002,4500 TRUXEL RD
38.48575193,-121.46264579999999,3892 ROBINRIDGE WAY
38.59864132,-121.4396597,1451 RIVER PARK DR
38.47963499,-121.45757409999999,MEADOWSTONE DR / SUNMEADOW DR
38.66489459,-121.43891799999999,5325 DRY CREEK RD
38.51557848,-121.4372604,6105 STOCKTON BLVD
38.57997771,-121.4978345,700 K ST
38.46667459,-121.4449453,4816 VALLEY HI DR
38.64150838,-121.42179909999999,237 MAJESTIC LN
38.54049185,-121.47631659999999,3710 FRANKLIN BLVD
38.55330191,-121.48803159999999,21ST ST / 3RD AVE
38.5185631,-121.37111110000001,8940 ALDER AVE
38.61266767,-121.4523028,650 PLAZA AVE
38.56191557,-121.4738686,2025 28TH ST
38.61398148,-121.4886144,2614 ERIN DR
38.51640138,-121.36746720000001,4 WAYNE CT
38.51640138,-121.36746720000001,4 WAYNE CT
38.5241743,-121.4109836,7917 32ND AVE
38.63862878,-121.3815598,3555 AUBURN BLVD
38.68058937,-121.50309109999999,380 RICK HEINRICH CIR
38.48542538,-121.47828200000001,2541 FERNDALE AVE
38.61625577,-121.500722,15 CHIEF CT
38.61464988,-121.51834469999999,2820 GRASSLANDS DR
38.53232093,-121.4294935,64TH ST / 21ST AVE
38.48160193,-121.4654193,3501 MEADOWVIEW RD
38.5171811,-121.5265412,6087 RIVERSIDE BLVD
38.59623882,-121.5060581,222 JIBBOOM ST
38.47334706,-121.4883531,2305 EXPEDITION WAY
38.56321928,-121.4984736,RIVERSIDE BLVD / BROADWAY
38.64479784,-121.4581238,4211 NORWOOD AVE
38.57904372,-121.4815537,815 18TH ST
38.47531506,-121.44874850000001,4551 MACK RD
38.58138778,-121.48379299999999,G ST / 16TH ST
38.51727419,-121.41867739999999,7336 ROTELLA DR
38.4767094,-121.4377902,7739 CENTER PKWY
38.60873128,-121.5193996,2381 RIVER PLAZA DR
38.47472088,-121.49730990000002,7817 AMHERST ST
38.65972757,-121.5244558,4800N KOKOMO DR
38.53616085,-121.42859920000001,65TH ST / 18TH AVE
38.5395277,-121.47503359999999,3837 FRANKLIN BLVD
38.54536782,-121.4576585,3201 42ND ST
38.52497346,-121.44259040000001,STOCKTON BLVD / FRUITRIDGE RD
38.57661853,-121.48884369999999,14TH ST / L ST
38.57122734,-121.47332779999999,26TH ST / CAPITOL AVE
38.47425283,-121.43687690000002,CENTER PKWY / MACK RD
38.58052209,-121.49862479999999,545 K ST
38.50482589999999,-121.54469669999999,459 WINDWARD WAY
38.57342047,-121.45533600000002,713 37TH ST
38.60154457,-121.42747,1689 ARDEN WAY
38.52497346,-121.44259040000001,STOCKTON BLVD / FRUITRIDGE RD
38.57394234,-121.4707578,1010 27TH ST
38.52273597,-121.47678590000001,2811 33RD AVE
38.50622587,-121.4367156,6001 RIZA AVE
38.57419952,-121.47055300000001,27TH ST / J ST
38.51719277,-121.38643190000002,8581 YOUNGER CREEK DR
38.55472055,-121.46712360000001,35TH ST / Y ST
38.57961426,-121.47714180000001,21ST ST / G ST
38.49609085,-121.4740915,2829 FLORIN RD
38.58506592,-121.4884229,12TH ST / E ST
38.50910577,-121.51735120000001,6501 LAKE PARK DR
38.58033768,-121.48538529999999,805 15TH ST
38.55669548,-121.41007169999999,7600 LA RIVIERA DR
38.57274295,-121.46968580000001,28TH ST / K ST
38.64242648,-121.42034209999998,122 VILLAGE CIR
38.59891162,-121.4258885,1696 ARDEN WAY
38.49647503,-121.5070696,1349 FLORIN RD
38.47425283,-121.43687690000002,MACK RD / CENTER PKWY
38.57274295,-121.46968580000001,28TH ST / K ST
38.53317181,-121.4463754,20TH AVE / STOCKTON BLVD
38.60416364,-121.43743970000001,1324 ARDEN WAY
38.45538981,-121.433282,52 DEL VISTA CIR
38.58312791,-121.5049909,112 J ST
38.49372331,-121.52470859999998,7236 GREENHAVEN DR
38.57492438,-121.46873909999998,I ST / 28TH ST
38.57473276,-121.50032350000001,7TH ST / P ST
38.48250578,-121.47874350000001,2451 MEADOWVIEW RD
38.5099909,-121.42396140000001,6805 RANCHO PICO WAY
38.51054436,-121.41225630000001,SUN RIVER DR / ELDER CREEK RD
38.62663929,-121.46827320000001,3293 WESTERN AVE
38.62773289,-121.4438628,BRANCH ST / RIVERA DR
38.61915532,-121.49435600000001,2901 STONECREEK DR
38.49362212,-121.45800600000001,MEADOWGATE DR / FRANKLIN BLVD
38.45826571,-121.4453528,25 TYNDALL CT
38.56040719,-121.4706693,2104 ALHAMBRA BLVD
38.57238808,-121.46834879999999,K ST / 29TH ST
38.52469228,-121.4440747,5288 FRUITRIDGE RD
38.62682816,-121.46278649999999,181 CATHCART AVE
38.56858948,-121.40763340000001,288 HOWE AVE
38.54562468,-121.4603243,3126 SANTA CRUZ WAY
38.61897041,-121.46362279999998,148 LINDLEY DR
38.55531288,-121.46397890000001,3630 DOWNEY WAY
38.5105054,-121.435864,STOCKTON BLVD / 47TH AVE
38.52497346,-121.44259040000001,STOCKTON BLVD / FRUITRIDGE RD
38.57003953,-121.49642490000001,S ST / 11TH ST
38.57514018,-121.48799029999999,CAPITOL AVE / 15TH ST
38.59902063,-121.4340896,1562 RESPONSE RD
38.60765307,-121.45219440000001,645 CALVADOS AVE
38.47885765,-121.4894804,7657 WALSH WAY
38.56969876,-121.48143619999999,21ST ST / P ST
38.54031312,-121.45021840000001,13TH AVE / STOCKTON BLVD
38.48230213,-121.4530858,FRANKLIN BLVD / BROOKFIELD DR
38.4897602,-121.50362209999999,1448 MATHEWS WAY
38.58067301,-121.4948106,9TH ST / J ST
38.51599171,-121.4274605,65TH STREET EXPY / LEMON HILL AVE
38.58033768,-121.48538529999999,805 15TH ST
38.50795726,-121.41869380000001,7430 50TH AVE
38.58033768,-121.48538529999999,805 15TH ST
38.57238808,-121.46834879999999,29TH ST / K ST
38.63488762,-121.45986210000001,3700 DIDCOT CIR
38.63392176,-121.4576639,3651 NORWOOD AVE
38.56987859,-121.4910186,1417 R ST
38.63297957,-121.4212696,1947 SOUTH AVE
38.57858559,-121.4641608,E ST / 30TH ST
38.64628124,-121.4553219,4307 BURGESS DR
38.59891162,-121.4258885,1696 ARDEN WAY
38.643562700000004,-121.464145,4149 ENGLEWOOD ST
38.550348299999996,-121.4379514,2ND AVE / 58TH ST
38.44653175,-121.41408510000001,7690 JACINTO RD
38.54414515,-121.4610278,3326 40TH ST
38.50703711,-121.4110446,7806 50TH AVE
38.49210335,-121.5076797,7308 FARM DALE WAY
38.67232741,-121.5135763,5350 DUNLAY DR
38.45814178,-121.428371,COSUMNES RIVER BLVD / CENTER PKWY
38.5194434,-121.51649840000002,LAKE CREST WAY / GLORIA DR
38.47672027,-121.43270759999999,5940 SEYFERTH WAY
38.60075643,-121.46240559999998,151 GLOBE AVE
38.49494036,-121.53430559999998,5 POLVADERA CT
38.61199425,-121.4244182,1820 FRIENZA AVE
38.57652974,-121.5025007,5TH ST / O ST
38.54818818,-121.3940644,8389 FOLSOM BLVD
38.61535582,-121.4407814,1119 GLENROSE AVE
38.62578372,-121.46376049999999,148 FAIRBANKS AVE
38.48719481,-121.46410230000001,3820 SHINING STAR DR
38.55093619,-121.4007863,8245 LAKE FOREST DR
38.47920788,-121.44510990000002,TANGERINE AVE / BROOKFIELD DR
38.61562847,-121.4941115,2720 STONECREEK DR
38.55158609,-121.4650489,3708 2ND AVE
38.60938057,-121.44994129999999,739 DIXIEANNE AVE
38.47866168,-121.43664299999999,7678 ROTHERTON WAY
38.63861804,-121.433145,3905 ELM ST
38.61437028,-121.5171426,W EL CAMINO AVE / GATEWAY OAKS DR
38.55339508,-121.46019209999999,3959 Y ST
38.57920289,-121.49394299999999,10TH ST / K ST
38.52607558,-121.49608490000001,5401 FREEPORT BLVD
38.52545649,-121.43181340000001,6231 FRUITRIDGE RD
38.56892645,-121.4770068,1525 24TH ST
38.63952262,-121.44244029999999,3928 MAY ST
38.50924636,-121.4899655,2101 48TH AVE
38.559416600000006,-121.4854383,2100 BROADWAY
38.64960775,-121.5097011,4321 TRUXEL RD
38.61164446,-121.4473165,2422 DEL PASO BLVD
38.61899876,-121.47520800000001,2960 NORTHGATE BLVD
38.64310734,-121.4170313,4130 DAYTON ST
38.61215173,-121.46588940000001,SANTIAGO AVE / WESTERN AVE
38.63922669,-121.440293,3918 HAYWOOD ST
38.66131821,-121.4941478,1511 EDGEMORE AVE
38.62295396,-121.43514579999999,3069 MARYSVILLE BLVD
38.54783739,-121.42432029999999,6730 4TH AVE
38.5125956,-121.4144237,7655 MARALEE WAY
38.53182194,-121.46470409999999,MARTIN LUTHER KING JR BLVD / 23RD AVE
38.62713181,-121.5012199,101 DEL VERDE CIR
38.58286126,-121.444405,4151 CLYDE CT
38.45718227,-121.4133413,8101 COSUMNES RIVER BLVD
38.49136309,-121.49395049999998,1967 WHITMAN WAY
38.55495326,-121.38503359999999,2787 WISSEMANN DR
38.52573067,-121.44530759999999,5051 FRUITRIDGE RD
38.57223488,-121.4732784,2526 L ST
38.58121896,-121.50486780000001,1125 2ND ST
38.501249200000004,-121.50747690000001,6854 BUENA TERRA WAY
38.53684169,-121.47857040000001,4200 NORTON WAY
38.485360899999996,-121.4834913,7534 ADDISON WAY
38.56345574,-121.41109650000001,712 DUNBARTON CIR
38.55100213,-121.4569932,43RD ST / 2ND AVE
38.58221746,-121.50527009999999,FIREHOUSE ALY / K ST
38.57206419,-121.5074847,1990 3RD ST
38.59513553,-121.4280253,EXPOSITION BLVD / CHALLENGE WAY
38.61227299,-121.4421005,1071 SANTIAGO AVE
38.61209749,-121.4427213,1063 SANTIAGO AVE
38.52700121,-121.47817739999999,2761 29TH AVE
38.5125956,-121.4144237,7655 MARALEE WAY
38.47363779,-121.4425544,7814 SUMMERSDALE DR
38.5057826,-121.4359118,6001 RIZA AVE
38.56613712,-121.46808759999999,ALHAMBRA BLVD / P ST
38.52484987,-121.4772878,FRUITRIDGE RD / 28TH ST
38.53190991,-121.513869,1164 25TH AVE
38.52484987,-121.4772878,28TH ST / FRUITRIDGE RD
38.47429277,-121.4503108,MACK RD / FRANKLIN BLVD
38.65685581,-121.443751,8 BRIAR CREEK CT
38.48326162,-121.49561829999999,7550 18TH ST
38.47822749,-121.45840919999999,156 CREEKSIDE CIR
38.64316291,-121.47458190000002,4100 NORTHGATE BLVD
38.5733534,-121.4728783,2520 K ST
38.53632427,-121.4283287,4285 65TH ST
38.52484987,-121.4772878,FRUITRIDGE RD / 28TH ST
38.46009782,-121.41973970000001,ALPINE FROST DR / COVEY CREEK WAY
38.57129023,-121.4860977,1711 P ST
38.44957781,-121.4296128,8485 SUNNYBRAE DR
38.63449242,-121.5028488,3561 TRUXEL RD
38.51052896,-121.4233804,ELDER CREEK RD / PANTANO DR
38.54098258,-121.46119159999999,3982 12TH AVE
38.63862878,-121.3815598,3555 AUBURN BLVD
38.57188611,-121.46488970000001,1025 ALHAMBRA BLVD
38.5149777,-121.43512620000001,6000 LEMON HILL AVE
38.56053898,-121.48837490000001,BROADWAY / 19TH ST
38.47038918,-121.4223876,6600 BRUCEVILLE RD
38.53748352,-121.46399040000001,3833 17TH AVE
38.53197902,-121.4192743,73RD ST / 21ST AVE
38.62127582,-121.4481729,ALTOS AVE / ACACIA AVE
38.47421612,-121.42716999999999,MACK RD / VALLEY HI DR
38.61495011,-121.44320649999999,1001 OLIVERA WAY
38.53255722,-121.4284078,4791 65TH ST
38.45814178,-121.428371,COSUMNES RIVER BLVD / CENTER PKWY
38.50741014,-121.4262572,6579 CUNNINGHAM WAY
38.53847284,-121.4647521,MARTIN LUTHER KING JR BLVD / 15TH AVE
38.64399332,-121.4522932,TAYLOR ST / JESSIE AVE
38.62127582,-121.4481729,ALTOS AVE / ACACIA AVE
38.59808509,-121.4275537,1690 ARDEN WAY
38.54020494,-121.4505653,3800 STOCKTON BLVD
38.5407138,-121.4719831,3725 32ND ST
38.57321469,-121.484146,1325 18TH ST
38.56931527,-121.405123,2471 AMERICAN RIVER DR
38.52904451,-121.47279650000002,FRANKLIN BLVD / 26TH AVE
38.57188611,-121.46488970000001,1025 ALHAMBRA BLVD
38.52466107,-121.49663319999999,1906 FRUITRIDGE RD
38.50801843,-121.4787669,WOODBINE AVE / 49TH AVE
38.47047038,-121.4276716,6450 BAMFORD DR
38.61266409,-121.4988152,1620 W EL CAMINO AVE
38.47322263,-121.4250682,7821 ALTA VALLEY DR
38.49145352,-121.47602979999999,2741 67TH AVE
38.46689445,-121.4170895,8001 BRUCEVILLE RD
38.6593321,-121.5231067,4800 KOKOMO DR
38.6593321,-121.5231067,4800 KOKOMO DR
38.6593321,-121.5231067,4800 KOKOMO DR
38.60607992,-121.5170483,2265 RIVER PLAZA DR
38.62907056,-121.4812389,815 SAN JUAN RD
38.5107739,-121.41257590000001,6336 SUN RIVER DR
38.50553737,-121.43573909999998,6001 RIZA AVE
38.63001178,-121.5246121,307 DRAGONFLY CIR
38.65588957,-121.5219811,TOWN CENTER DR / DEL PASO RD
38.64648745,-121.4588953,4317 NORWOOD AVE
38.61266409,-121.4988152,1620 W EL CAMINO AVE
38.53725978,-121.44851829999999,SAN FRANCISCO BLVD / STOCKTON BLVD
38.50238552,-121.4148429,7613 TIERRA ARBOR WAY
38.62592771,-121.45694409999999,NORWOOD AVE / FAIRBANKS AVE
38.47577578,-121.45441070000001,123 DECATHLON CIR
38.62613997,-121.42690490000001,ARCADE BLVD / DEL PASO BLVD
38.62504428,-121.4978986,SAGINAW CIR / TRUXEL RD
38.48712572,-121.46638059999998,BOULDER WAY / QUARTZ CT
38.51357385,-121.43106920000001,6025 DIAS AVE
38.56824782,-121.4063351,2350 AMERICAN RIVER DR
38.47371582,-121.44165249999999,7811 SUMMERSDALE DR
38.65682845,-121.44491740000001,873 HUNTERS CREEK DR
38.63208305,-121.5275004,2773 SCREECH OWL WAY
38.54903932,-121.4890727,3051 FREEPORT BLVD
38.52123795,-121.51226740000001,35TH AVE / S LAND PARK DR
38.48160193,-121.4654193,3501 MEADOWVIEW RD
38.56972093,-121.4436294,4700 H ST
38.53689529,-121.5045145,4408 DEL RIO RD
38.550599,-121.5055033,3131 RIVERSIDE BLVD
38.57054301,-121.4559805,3815 J ST
38.52164684,-121.4709707,FRANKLIN BLVD / 34TH AVE
38.52164684,-121.4709707,FRANKLIN BLVD / 34TH AVE
38.63475409,-121.4347477,1400 GRAND AVE
38.54675579,-121.45384009999998,BROADWAY / STOCKTON BLVD
38.56602524,-121.4996535,W ST / 10TH ST
38.68359884,-121.4986104,1641 HALO WAY
38.48226812,-121.44824070000001,6 SAINT MARIE CIR
38.48146892,-121.47534499999999,CORAL GABLES CT / MEADOWVIEW RD
38.62648616,-121.49669479999999,3200 TRUXEL RD
38.50962701,-121.4236743,6907 VILLA JUARES CIR
38.54837098,-121.4723111,3223 DONNER WAY
38.64969964,-121.4599529,2 SUNBORG CT
38.54653635,-121.43053370000001,6390 BROADWAY
38.61442767,-121.4256271,2645 PLOVER ST
38.50337906,-121.5124278,1360 TUGGLE WAY
38.45936698,-121.4301423,8236 CENTER PKWY
38.66058449,-121.54293090000002,4855 DARLINGTON LN
38.50102546,-121.4875817,2155 55TH AVE
38.52466889,-121.39298459999999,8376 FRUITRIDGE RD
38.56831488,-121.4551476,1109 1/2 39TH ST
38.60154457,-121.42747,1689 ARDEN WAY
38.6118742,-121.46110729999998,226 SANTIAGO AVE
38.53896764,-121.4702374,3916 TEMPLE AVE
38.57216632,-121.5043919,5TH ST / S ST
38.61138598,-121.4472415,845 EL CAMINO AVE
38.5695415,-121.40908400000001,AMERICAN RIVER DR / HOWE AVE
38.65120874,-121.45151990000001,4570 TIDEWIND DR
38.48832414,-121.45719720000001,17 LA PERA CT
38.64628124,-121.4553219,4307 BURGESS DR
38.4811677,-121.46474479999999,3765 ANDROS WAY
38.51368568,-121.52926940000002,6205 RIVERSIDE BLVD
38.61112661,-121.4487064,EL CAMINO AVE / DEL PASO BLVD
38.51042757,-121.5419071,6421 RIVERSIDE BLVD
38.64642723,-121.4560035,4332 NORWOOD AVE
38.51658451,-121.5236897,941 43RD AVE
38.53881527,-121.47901399999999,2750 SUTTERVILLE RD
38.55806637,-121.4715924,ALHAMBRA BLVD / W ST
38.46703933,-121.419142,8017 ARROYO VISTA DR
38.52497346,-121.44259040000001,FRUITRIDGE RD / STOCKTON BLVD
38.52709836,-121.44249340000002,5321 STOCKTON BLVD
38.56945352,-121.4005189,2636 LATHAM DR
38.53881527,-121.47901399999999,2750 SUTTERVILLE RD
38.61000927,-121.44703170000001,2444 EMPRESS ST
38.4873608,-121.5160587,104 FOUNTAIN OAKS CIR
38.57211152,-121.48000559999998,1331 21ST ST
38.57510308,-121.47723090000001,2201 K ST
38.50643674,-121.43154890000001,6222 BOBBIWOOD WAY
38.62798003,-121.44615719999999,UNION ST / RIO LINDA BLVD
38.52524507,-121.37029369999999,S WATT AVE / FRUITRIDGE RD
38.62712763,-121.4772274,3257 NORTHVIEW DR
38.46956286,-121.4616848,6 DEERTREE CT
38.6347855,-121.41344440000002,2303 ROANOKE AVE
38.546706,-121.44054299999999,56TH ST / BROADWAY
38.55727813,-121.46143219999999,2150 STOCKTON BLVD
38.582894399999994,-121.5043244,1002 2ND ST
38.55426406,-121.45460449999999,2315 STOCKTON BLVD
38.5695415,-121.40908400000001,HOWE AVE / AMERICAN RIVER DR
38.51141318,-121.38655490000001,8583 ELDER CREEK RD
38.477606,-121.4933388,1955 71ST AVE
38.55155803,-121.46849350000001,35TH ST / 3RD AVE
38.58102646,-121.5060865,1201 FRONT ST
38.57039642,-121.41848590000002,425 UNIVERSITY AVE
38.470693100000005,-121.42717730000001,VALLEY HI DR / BRUCEVILLE RD
38.49696354,-121.49997309999999,1630 59TH AVE
38.56374026,-121.4119685,1407 COMMONS DR
38.47952023,-121.4865622,7633 22ND ST
38.63082118,-121.4278895,1672 ROSALIND ST
38.62592964,-121.4440379,999 ARCADE BLVD
38.50298477,-121.5346969,6715 GLORIA DR
38.54718283,-121.46472179999999,MARTIN LUTHER KING JR BLVD / BROADWAY
38.54675579,-121.45384009999998,BROADWAY / STOCKTON BLVD
38.63747898,-121.50389579999998,TRUXEL RD / GATEWAY PARK BLVD
38.55196925,-121.46536780000001,37TH ST / 2ND AVE
38.56140588,-121.4113652,1551 UNIVERSITY AVE
38.56140588,-121.4113652,1551 UNIVERSITY AVE
38.53912989,-121.40316499999999,8233 BELVEDERE AVE
38.49502927,-121.4847037,2338 FLORIN RD
38.61655968,-121.44616189999999,ELEANOR AVE / RIO LINDA BLVD
38.44502931,-121.4059375,8557 MELVILLE DR
38.44973707,-121.4180465,BRUCEVILLE RD / CALVINE RD
38.67808799,-121.5154531,5593 BRAMPTON WAY
38.58357594,-121.4942898,720 9TH ST
38.52929929,-121.42152990000001,5041 WHITTIER DR
38.49940254,-121.4627597,7000 FRANKLIN BLVD
38.54675579,-121.45384009999998,STOCKTON BLVD / BROADWAY
38.46073053,-121.4457074,ECKERT CT / EHRHARDT AVE
38.48677948,-121.4598222,MANDY DR / SALT CT
38.44697363,-121.4178456,BRUCEVILLE RD / JACINTO AVE
38.54700614,-121.4633315,39TH ST / BROADWAY
38.54680076,-121.4616791,BROADWAY / LA SOLIDAD WAY
38.57069163,-121.45488459999999,3865 J ST
38.62465729,-121.43814259999999,3109 CRANDALL AVE
38.53954773,-121.40914009999999,14TH AVE / POWER INN RD
38.57043064,-121.50819550000001,2112 3RD ST
38.57271087,-121.4662897,3000 J ST
38.54675579,-121.45384009999998,STOCKTON BLVD / BROADWAY
38.47435531,-121.448452,4701 MACK RD
38.54669508,-121.4416935,BROADWAY / 55TH ST
38.60874842,-121.49440179999999,2315 MOSSY BANK DR
38.63895258,-121.439826,3913 CLAY ST
38.5077414,-121.53897830000001,407 FLORIN RD
38.47692818,-121.5022861,7723 REENEL WAY
38.51995472,-121.52258710000001,5905 RIVERSIDE BLVD
38.57223488,-121.4732784,2526 L ST
38.44878699,-121.44085220000001,CALVINE RD / JACINTO AVE
38.57798346,-121.49263640000001,1127 11TH ST
38.56931341,-121.47453459999998,2527 O ST
38.5467716,-121.45895900000001,SAN RAFAEL CT / BROADWAY
38.59279731,-121.48506100000002,SITKA ST / DOS RIOS ST
38.55689118,-121.48316240000001,2570 24TH ST
38.61866401,-121.51956709999999,2900 WEALD WAY
38.64404243,-121.4568936,JESSIE AVE / NORWOOD AVE
38.63020663,-121.4959999,3301 FONG RANCH RD
38.52498825,-121.44053500000001,55TH ST / FRUITRIDGE RD
38.4616929,-121.43239380000001,6011 VALLEY VALE WAY
38.59279731,-121.48506100000002,N D ST / DOS RIOS ST
38.56588957,-121.4602865,FOLSOM BLVD / 36TH ST
38.54818818,-121.3940644,8391 FOLSOM BLVD
38.52691284,-121.51138970000001,5320 S LAND PARK DR
38.67811932,-121.5183604,2514 AUTUMN MEADOW AVE
38.61118933,-121.42655959999999,EL CAMINO AVE / BUS 80 EB
38.5752667,-121.4745537,24TH ST / J ST
38.47059147,-121.43386000000001,GRANDSTAFF DR / BAMFORD DR
38.52394421,-121.4421196,YOUNG ST / STOCKTON BLVD
38.65887585,-121.4469922,5016 ROSE ST
38.47732902,-121.49091999999999,7700 SWEETBRIER WAY
38.57188611,-121.46488970000001,1025 ALHAMBRA BLVD
38.54674644,-121.4460953,5009 BROADWAY
38.63449242,-121.5028488,3561 TRUXEL RD
38.57188611,-121.46488970000001,1025 ALHAMBRA BLVD
38.503518,-121.4757666,2715 EDINGER AVE
38.62427027,-121.44615800000001,ARCADE BLVD / RIO LINDA BLVD
38.48274139,-121.45017240000001,4529 BROOKFIELD DR
38.47421612,-121.42716999999999,MACK RD / VALLEY HI DR
38.57815667,-121.48769579999998,1100 14TH ST
38.44752323,-121.4401567,5340 MAPLETON WAY
38.51685646,-121.52505090000001,6001 RIVERSIDE BLVD
38.55019478,-121.4920577,19TH ST / BIDWELL WAY
38.53085814,-121.47914899999999,2630 PHYLLIS AVE
38.49525938,-121.50790249999999,1330 FLORIN RD
38.5473157,-121.45204209999999,4611 BROADWAY
38.54675579,-121.45384009999998,STOCKTON BLVD / BROADWAY
38.57602331,-121.4682622,28TH ST / H ST
38.56559378,-121.5072531,5TH ST / BROADWAY
38.54910632,-121.5096362,10TH AVE / SANTA BUENA WAY
38.58062786,-121.5014996,414 K ST
38.57009677,-121.4162358,350 UNIVERSITY AVE
38.451198100000006,-121.43411840000002,CALVINE RD / CARLIN AVE
38.61315477,-121.4490547,785 PLAZA AVE
38.56689949,-121.413324,481 HARTNELL PL
38.60154457,-121.42747,1689 ARDEN WAY
38.48278711,-121.47175800000001,7568 32ND ST
38.47985848,-121.44621570000001,4756 BROOKFIELD DR
38.50440869,-121.422371,RANCHO CAMPO CT / RANCHO PLAZA DR
38.55630084,-121.4662305,2315 34TH ST
38.65847399,-121.51614679999999,2500 NEW MARKET DR
38.57929276,-121.4906436,1200 J ST
38.65847399,-121.51614679999999,2500 NEW MARKET DR
38.50388656,-121.5390906,6761 GLORIA DR
38.56665175,-121.50679109999999,X ST / 5TH ST
38.61112661,-121.4487064,DEL PASO BLVD / EL CAMINO AVE
38.54392319,-121.47124609999999,33RD ST / 9TH AVE
38.47038918,-121.4223876,6600 BRUCEVILLE RD
38.61755666,-121.4444846,2747 BRANCH ST
38.48149327,-121.46448740000001,SHINING STAR DR / MEADOWVIEW RD
38.47765523,-121.5196666,RIO CIDADE WAY / RIO ESTRADA WAY
38.61728024,-121.5007778,RIVER CITY WAY / BANNON CREEK DR
38.629651700000004,-121.47552859999999,NORTHGATE BLVD / SAN JUAN RD
38.52007051,-121.5018595,1525 STERLING ST
38.61112009,-121.44733810000001,EL CAMINO AVE / EMPRESS ST
38.57551005,-121.4940462,N ST / 11TH ST
38.47429277,-121.4503108,MACK RD / FRANKLIN BLVD
38.62197217,-121.4253528,ACADEMY WAY / KATHLEEN AVE
38.55595051,-121.4641035,2301 36TH ST
38.62477487,-121.4251692,1732 KENWOOD ST
38.58245363,-121.50527549999998,113 K ST
38.62192663,-121.4322662,DEL PASO BLVD / PALO VERDE AVE
38.58601422,-121.48368959999999,1422 C ST
38.48340799,-121.52033359999999,7971 RUSH RIVER DR
38.51177507,-121.54310420000002,6364 SEASTONE WAY
38.56342448,-121.46935990000001,1820 ALHAMBRA BLVD
38.591167999999996,-121.4817665,300 AHERN ST
38.61140992,-121.44765430000001,2400 DEL PASO BLVD
38.48020167,-121.46013740000001,7646 BLUEBROOK WAY
38.62192663,-121.4322662,DEL PASO BLVD / PALO VERDE AVE
38.63589608,-121.5055312,3661 TRUXEL RD
38.60785424,-121.4581841,HAWTHORNE ST / EL MONTE AVE
38.48151147,-121.4684313,MEADOWVIEW RD / DETROIT BLVD
38.56215492,-121.50638500000001,2659 KIT CARSON ST
38.53385644,-121.515754,1105 25TH AVE
38.51599171,-121.4274605,LEMON HILL AVE / 65TH STREET EXPY
38.58358534,-121.4920473,10TH ST / G ST
38.64278274,-121.42571370000002,MACARTHUR ST / DOOLITTLE ST
38.55805348,-121.4790449,26TH ST / BROADWAY
38.49575914,-121.4827348,24TH ST / FLORIN RD
38.61890556,-121.50007690000001,2901 TRUXEL RD
38.48340441,-121.5321939,622 LAKE FRONT DR
38.48272145,-121.4790738,2451 MEADOWVIEW RD
38.57772224,-121.49067930000001,1209 L ST
38.5543985,-121.4790156,27TH ST / 2ND AVE
38.58003319,-121.4973304,714 K ST
38.65877823,-121.5043183,6 KLONDIKE CT
38.57042066,-121.4740683,2525 N ST
38.55234985,-121.4711067,33RD ST / 3RD AVE
38.51018598,-121.49008119999999,6460 ROMACK CIR
38.54528535,-121.46471499999998,MARTIN LUTHER KING JR BLVD / 7TH AVE
38.61949324,-121.4962856,15 MORNING DOVE CIR
38.48214296,-121.534651,7600 AMBROSE WAY
38.61138144,-121.45555700000001,515 EL CAMINO AVE
38.55477924,-121.4715398,32ND ST / 1ST AVE
38.49466185,-121.5212433,1040 FLORIN RD
38.61112661,-121.4487064,EL CAMINO AVE / DEL PASO BLVD
38.61950804,-121.45351380000001,577 LAS PALMAS AVE
38.524921,-121.4494106,FRUITRIDGE RD / SAMPSON BLVD
38.54215599,-121.44396670000002,11TH AVE / 53RD ST
38.56944762,-121.4666533,CAPITOL AVE / ALHAMBRA BLVD
38.55792771,-121.43863999999999,5600 FOLSOM BLVD
38.625995700000004,-121.48692150000001,1140 WESTWARD WAY
38.54783739,-121.42432029999999,6730 4TH AVE
38.55128541,-121.46713179999999,36TH ST / 3RD AVE
38.59577758,-121.42626010000001,1821 EXPOSITION BLVD
38.55575132,-121.41177900000001,7767 LA RIVIERA DR
38.61972393,-121.47465659999999,521 INDIANA AVE
38.62741952,-121.4978994,SAN JUAN RD / TRUXEL RD
38.57562396,-121.42603740000001,5707 SPILMAN AVE
38.48617977,-121.4549077,7494 FRANKLIN BLVD
38.64316291,-121.47458190000002,4100 NORTHGATE BLVD
38.59714644,-121.4520581,1600 EXPO PKWY
38.6474367,-121.4534502,4391 BURGESS DR
38.64316291,-121.47458190000002,4100 NORTHGATE BLVD
38.52199137,-121.49901489999999,5770 FREEPORT BLVD
38.61732525,-121.51987009999999,WEALD WAY / GRASSLANDS DR
38.62896755,-121.5066925,3345 SMOKE TREE DR
38.54395353,-121.46470749999999,MARTIN LUTHER KING JR BLVD / 9TH AVE
38.60930781,-121.4485,DIXIEANNE AVE / BEAUMONT ST
38.50686233,-121.4787544,WOODBINE AVE / 50TH AVE
38.54675579,-121.45384009999998,BROADWAY / STOCKTON BLVD
38.62147929,-121.42785239999999,1646 KATHLEEN AVE
38.525636,-121.4473287,5501 48TH ST
38.47245555,-121.42708629999998,6670 VALLEY HI DR
38.5793726,-121.4747124,620 23RD ST
38.62247542,-121.43894740000002,3038 CLAY ST
38.63449242,-121.5028488,3561 TRUXEL RD
38.67732505,-121.51687350000002,5538 BRAMPTON WAY
38.51434816,-121.4800628,6125 HERMOSA ST
38.61542969,-121.49198490000002,1412 BREWERTON DR
38.64191945,-121.42163470000001,MACARTHUR ST / MAJESTIC LN
38.62009248,-121.42671899999999,3000 ACADEMY WAY
38.59007055,-121.4856685,1200 N B ST
38.48538062,-121.5374388,7534 RUSH RIVER DR
38.55462435,-121.45881899999999,4043 SHERMAN WAY
38.61474191,-121.4461725,RIO LINDA BLVD / LAMPASAS AVE
38.54221766,-121.4374105,11TH AVE / DAVID WAY
38.61295423,-121.5005071,2 TIMBERWOOD CT
38.60307405,-121.42029099999999,2031 ETHAN WAY
38.47433721,-121.4189709,STOCKTON BLVD / ELSIE AVE
38.45471595,-121.4381169,8347 VALLEY LARK DR
38.52555366,-121.43427,5413 61ST ST
38.62147929,-121.42785239999999,1646 KATHLEEN AVE
38.47614715,-121.4598152,MACK RD / ARCHEAN WAY
38.62406654,-121.4448995,951 SONOMA AVE
38.55269382,-121.42740729999998,6500 Q ST
38.61696967,-121.50007649999999,9 INLET CT
38.47587793,-121.4395992,78 THATCHER CIR
38.63936687,-121.44089059999999,3927 HAYWOOD ST
38.53450711,-121.46819740000002,20TH AVE / 36TH ST
38.627317,-121.4534085,3314 LUNA NUEVO ST
38.58314743,-121.49740990000002,651 I ST
38.53944483,-121.46295829999998,WASHINGTON AVE / 14TH AVE
38.56374165,-121.47873059999999,2418 T ST
38.58276198,-121.4688872,2519 C ST
38.52983357,-121.44482820000002,LAWRENCE DR / STOCKTON BLVD
38.57615249,-121.5003415,1500 7TH ST
38.52532078,-121.48309040000001,5531 24TH ST
38.66298106,-121.52703629999999,2936 LOGANSPORT DR
38.61199425,-121.4244182,1820 FRIENZA AVE
38.489042299999994,-121.491965,68TH AVE / 21ST ST
38.57500761,-121.4841051,1720 L ST
38.62648616,-121.49669479999999,3200 TRUXEL RD
38.54327657,-121.4417342,5440 9TH AVE
38.45543018,-121.43704620000001,5750 KEVINBERG DR
38.58618556,-121.48702240000001,1217 D ST
38.47431603,-121.4546419,MACK RD / DEER CREEK DR
38.54718283,-121.46472179999999,MARTIN LUTHER KING JR BLVD / BROADWAY
38.65798545,-121.54188300000001,4800 WESTLAKE PKWY
38.57498057,-121.46424740000002,H ST / ALHAMBRA BLVD
38.58506592,-121.4884229,12TH ST / E ST
38.63862878,-121.3815598,3555 AUBURN BLVD
38.62346829,-121.44268840000001,1044 SONOMA AVE
38.57100991,-121.4935219,1250 WHITNEY AVE
38.61124309,-121.4755625,W EL CAMINO AVE / NORTHGATE BLVD
38.51048773,-121.40600800000001,8174 ELDER CREEK RD
38.56412181,-121.417918,910 UNIVERSITY AVE
38.54066622,-121.4517155,3724 47TH ST
38.64674718,-121.5324558,76 GOOSE HAVEN CT
38.50111994,-121.5139178,1204 56TH AVE
38.62210853,-121.51917639999999,2860 GATEWAY OAKS DR
38.51995809,-121.4304905,6305 MCMAHON DR
38.51995809,-121.4304905,6305 MCMAHON DR
38.52199137,-121.49901489999999,5770 FREEPORT BLVD
38.47764806,-121.4891676,211 HEMFORD CIR
38.5985901,-121.4286169,1610 ARDEN WAY
38.61188095,-121.4655275,24 SANTIAGO AVE
38.58215599,-121.47752549999998,20TH ST / E ST
38.57294064,-121.4248243,87 SANDBURG DR
38.60590997,-121.46464840000002,90 ARDEN WAY
38.56519016,-121.4442104,1133 48TH ST
38.50305262,-121.48279380000001,24TH ST / 53RD AVE
38.52199137,-121.49901489999999,5770 FREEPORT BLVD
38.62599581,-121.4316422,1535 ARCADE BLVD
38.6161187,-121.4504318,2673 ALTOS AVE
38.57871645,-121.4802163,815 19TH ST
38.62354293,-121.434294,PALO VERDE AVE / MARYSVILLE BLVD
38.47732859,-121.48033219999999,24TH ST / JOHN STILL DR
38.62996703,-121.4784703,731 SAN JUAN RD
38.50634715,-121.51694350000001,6617 LAKE PARK DR
38.67745476,-121.5027381,5645 POP BECKER ST
38.62541828,-121.433145,MARYSVILLE BLVD / ARCADE BLVD
38.63647046,-121.42917800000001,GRAND AVE / WILLOW ST
38.64420903,-121.5129034,4101 INNOVATOR DR
38.58088731,-121.47146540000001,2415 E ST
38.62541828,-121.433145,ARCADE BLVD / MARYSVILLE BLVD
38.58026647,-121.49793390000002,7TH ST / K ST
38.66719342,-121.5277369,2940 TRAP ROCK WAY
38.49850245,-121.4827604,YREKA AVE / 24TH ST
38.6183743,-121.43922109999998,DEL PASO BLVD / MARYSVILLE BLVD
38.51055822,-121.3905289,ELDER CREEK RD / FLORIN PERKINS RD
38.66234122,-121.49512820000001,1560 MAYFIELD ST
